ID,Road,Name,District,RoadClass,Planned,Latitude,Longitude,StartTime,EndTime,MaxImpact,CurrImpact,Type,SubType,DirectionsAffected,WorkEventType,Signing
Tor-RD52026-1652-1-1,Hopedale Ave,Hopedale Ave 14 m North of O'Connor Dr to O'Connor Dr,EAST YORK,Local Road,1,43.692980,-79.352270,1779109200000,1780255800000,Low,None,CONSTRUCTION,,ONE_DIRECTION,"{tabledata"":[{""Option"":""Transportation Services""""",
Tor-RD52026-1652-1-2,O'Connor Dr,O'Connor Dr at Hopedale Ave to 5 m West of Hopedale Ave,EAST YORK,Minor Arterial Road,1,43.692860,-79.352230,1779109200000,1780255800000,Low,None,CONSTRUCTION,,ONE_DIRECTION,"{tabledata"":[{""Option"":""Transportation Services""""",
Tor-RD1H2026-835-6,Hillholm Rd,Hillholm Rd at Russell Hill Rd to 24 m East of Russell Hill Rd,TORONTO,Unknown,1,43.697610,-79.413050,1778500800000,1781724600000,Low,None,CONSTRUCTION,,ONE_DIRECTION,Toronto Hydro,
Tor-RD1H2026-826-3,Forest Hill Rd,Forest Hill Rd 136 m Southeast of Russell Hill Rd to 5 m East of Spadina Rd,TORONTO,Local Road,1,43.699870,-79.412650,1777896000000,1792697400000,Low,None,CONSTRUCTION,,ONE_DIRECTION,Toronto Hydro,
Tor-RD1H2026-710-1,Harvie Ave,Harvie Ave 3 m South of Carrington Ave to Redhill Ave,YORK,Local Road,1,43.691870,-79.456240,1777896000000,1783020600000,Low,None,CONSTRUCTION,,ONE_DIRECTION,Toronto Hydro,
Tor-RD1H2026-835-7,Hillholm Rd,Hillholm Rd 24 m East of Russell Hill Rd to 38 m Northwest of Lismore Rd,TORONTO,Local Road,1,43.697610,-79.412750,1778500800000,1781724600000,Low,None,CONSTRUCTION,,ONE_DIRECTION,Toronto Hydro,
Tor-RD1H2026-826-1,Ormsby Cres,Ormsby Cres 27 m East of Spadina Rd to Forest Hill Rd,TORONTO,Local Road,1,43.700620,-79.417360,1777896000000,1792697400000,Low,None,CONSTRUCTION,,ONE_DIRECTION,Toronto Hydro,
Tor-RD1H2026-710-6,Harvie Ave,Harvie Ave at Kitchener Ave to 3 m South of Redhill Ave,YORK,Local Road,1,43.689900,-79.455150,1777896000000,1783020600000,Low,None,CONSTRUCTION,,ONE_DIRECTION,Toronto Hydro,
Tor-RD1H2026-710-5,Kitchener Ave,Kitchener Ave 72 m West of Harvie Ave to Harvie Ave,YORK,Local Road,1,43.689740,-79.455870,1777896000000,1783020600000,Low,None,CONSTRUCTION,,ONE_DIRECTION,Toronto Hydro,
Tor-RD1H2026-710-4,Kitchener Ave,Kitchener Ave at Harvie Ave to 72 m West of Harvie Ave,YORK,Local Road,1,43.689900,-79.455150,1777896000000,1783020600000,Low,None,CONSTRUCTION,,ONE_DIRECTION,Toronto Hydro,
Tor-RD1H2026-710-3,Harvie Ave,Harvie Ave 3 m North of Kitchener Ave to Kitchener Ave,YORK,Local Road,1,43.689930,-79.455140,1777896000000,1783020600000,Low,None,CONSTRUCTION,,ONE_DIRECTION,Toronto Hydro,
Tor-RD1H2026-710-2,Redhill Ave,Redhill Ave at Harvie Ave to 2 m West of end of road,YORK,Local Road,1,43.691080,-79.455220,1777896000000,1783020600000,Low,None,CONSTRUCTION,,ONE_DIRECTION,Toronto Hydro,
Tor-RD1H2026-835-10,Dunvegan Rd,Dunvegan Rd at Russell Hill Rd to 17 m East of Russell Hill Rd,TORONTO,Unknown,1,43.699110,-79.413660,1778500800000,1781724600000,Low,None,CONSTRUCTION,,ONE_DIRECTION,Toronto Hydro,
Tor-RD1H2026-835-11,Dunvegan Rd,Dunvegan Rd 17 m East of Russell Hill Rd to 18 m Northwest of Larratt St,TORONTO,Local Road,1,43.699140,-79.413460,1778500800000,1781724600000,Low,None,CONSTRUCTION,,ONE_DIRECTION,Toronto Hydro,
Tor-RD1H2026-835-9,Russell Hill Rd,Russell Hill Rd from Hillholm Rd to Dunvegan Rd,TORONTO,Local Road,1,43.697610,-79.413050,1778500800000,1781724600000,Low,None,CONSTRUCTION,,ONE_DIRECTION,Toronto Hydro,
Tor-RD1H2026-835-4,Russell Hill Rd,Russell Hill Rd at Old Forest Hill Rd to 22 m Southwest of Old Forest Hill Rd,TORONTO,Local Road,1,43.696210,-79.412200,1778500800000,1781724600000,Low,None,CONSTRUCTION,,ONE_DIRECTION,Toronto Hydro,
Tor-RD1H2026-835-3,Old Forest Hill Rd,Old Forest Hill Rd 51 m Northwest of Lismore Rd to Russell Hill Rd,TORONTO,Local Road,1,43.695870,-79.411560,1778500800000,1781724600000,Low,None,CONSTRUCTION,,ONE_DIRECTION,Toronto Hydro,
Tor-RD1H2026-835-2,Old Forest Hill Rd,Old Forest Hill Rd at Russell Hill Rd to 51 m Northwest of Lismore Rd,TORONTO,Local Road,1,43.696390,-79.412550,1778500800000,1781724600000,Low,None,CONSTRUCTION,,ONE_DIRECTION,Toronto Hydro,
Tor-RD1H2026-835-8,Hillholm Rd,Hillholm Rd 38 m Northwest of Lismore Rd to Russell Hill Rd,TORONTO,Local Road,1,43.696620,-79.410660,1778500800000,1781724600000,Low,None,CONSTRUCTION,,ONE_DIRECTION,Toronto Hydro,
Tor-RD1H2026-835-1,Russell Hill Rd,Russell Hill Rd 18 m South of Forest Hill Rd to Old Forest Hill Rd,TORONTO,Local Road,1,43.700230,-79.414120,1778500800000,1781724600000,Low,None,CONSTRUCTION,,ONE_DIRECTION,Toronto Hydro,
Tor-RD1H2026-826-2,Forest Hill Rd,Forest Hill Rd at Ormsby Cres to 136 m Southeast of Russell Hill Rd,TORONTO,Local Road,1,43.700120,-79.415500,1777896000000,1792697400000,Low,None,CONSTRUCTION,,ONE_DIRECTION,Toronto Hydro,
Tor-RD1H2026-587,Yorkview Dr,Yorkview Dr 7 m West of Bentley Dr to 6 m East of Chartwell Rd,ETOBICOKE,Local Road,1,43.630850,-79.506240,1777032000000,1784662200000,Low,None,CONSTRUCTION,,ONE_DIRECTION,Toronto Hydro,
Tor-RD1H2026-835-5,Russell Hill Rd,Russell Hill Rd 22 m Southwest of Old Forest Hill Rd to Hillholm Rd,TORONTO,Local Road,1,43.695660,-79.412230,1778500800000,1781724600000,Low,None,CONSTRUCTION,,ONE_DIRECTION,Toronto Hydro,
Tor-RD1H2026-941,Bennett Rd,Bennett Rd 88 m South of Brightside Dr to 101 m South of Brightside Dr,SCARBOROUGH,Local Road,1,43.771010,-79.165540,1779886800000,1780254000000,Low,None,CONSTRUCTION,,ONE_DIRECTION,Toronto Hydro,
Tor-RD1H2025-676-3,Pricefield Rd,Pricefield Rd 67 m Northeast of Cluny Dr to 60 m West of Thornwood Rd,TORONTO,Local Road,1,43.681520,-79.386250,1775559600000,1783105200000,Low,None,ROAD_CLOSED,ROAD_CLOSED_CONSTRUCTION,BOTH_DIRECTIONS,Toronto Hydro,
Tor-RD1H2026-155-1,Ambleside Ave,Ambleside Ave at Chartwell Rd to 13 m West of Bentley Dr,ETOBICOKE,Local Road,1,43.630210,-79.513140,1770037200000,1782154800000,Low,None,ROAD_CLOSED,ROAD_CLOSED_CONSTRUCTION,BOTH_DIRECTIONS,Toronto Hydro,
Tor-RD52026-2082-2,The Queensway,The Queensway 17 m West of Burma Dr to 22 m Northeast of S Kingsway Queensway Ramp,ETOBICOKE and TORONTO,Major Arterial Road,1,43.627930,-79.495380,1779886800000,1780686000000,High,None,CONSTRUCTION,,ONE_DIRECTION,"{tabledata"":[{""Option"":""Other""""",
Tor-RD1H2026-553-3,Spadina Rd,Spadina Rd 41 m Southeast of Eglinton Ave W to 60 m Northwest of Chadwick Ave,TORONTO,Minor Arterial Road,1,43.702060,-79.418800,1774868400000,1781290800000,Low,None,CONSTRUCTION,,ONE_DIRECTION,Toronto Hydro,
Tor-RD1H2026-553-2,Spadina Rd,Spadina Rd 25 m South of Chadwick Ave to 43 m North of Forest Hill Rd,TORONTO,Minor Arterial Road,1,43.700920,-79.417830,1774868400000,1781290800000,Low,None,CONSTRUCTION,,ONE_DIRECTION,Toronto Hydro,
Tor-RD1H2026-553-1,Spadina Rd,Spadina Rd 36 m South of Old Forest Hill Rd to 36 m South of Ava Rd,TORONTO,Minor Arterial Road,1,43.698680,-79.416870,1774868400000,1781290800000,Low,None,CONSTRUCTION,,ONE_DIRECTION,Toronto Hydro,
Tor-RD1H2026-553-4,Spadina Rd,Spadina Rd 37 m North of Elderwood Dr to 31 m South of Elderwood Dr,TORONTO,Minor Arterial Road,1,43.697010,-79.416170,1774868400000,1781290800000,Low,None,CONSTRUCTION,,ONE_DIRECTION,Toronto Hydro,
Tor-RD1H2026-846-1,Edgecroft Rd,Edgecroft Rd 16 m East of Islington Ave to 40 m West of Loma Rd,ETOBICOKE,Local Road,1,43.627700,-79.516300,1778497200000,1782846000000,Low,None,CONSTRUCTION,,ONE_DIRECTION,Toronto Hydro,
Tor-RD1H2026-200,Castlebar Rd,Castlebar Rd at Chartwell Rd to 33 m West of Royal York Rd,ETOBICOKE,Local Road,1,43.630940,-79.513440,1770642000000,1782154800000,Low,None,ROAD_CLOSED,ROAD_CLOSED_CONSTRUCTION,BOTH_DIRECTIONS,Toronto Hydro,
Tor-RD1H2026-155-3,Uno Dr,Uno Dr at Ambleside Ave to 12 m South of Castlebar Rd,ETOBICOKE,Local Road,1,43.630980,-79.509670,1770037200000,1782154800000,Low,None,ROAD_CLOSED,ROAD_CLOSED_CONSTRUCTION,BOTH_DIRECTIONS,Toronto Hydro,
Tor-RD042026-579,Kipling Ave,Kipling Ave 11 m North of Eglinton Ave W to 26 m South of Dryden Way,ETOBICOKE,Major Arterial Road,1,43.677280,-79.550930,1779800400000,1780686000000,High,None,CONSTRUCTION,,ONE_DIRECTION,Metrolinx,
Tor-RD1H2026-155-2,Ambleside Ave,Ambleside Ave 13 m West of Bentley Dr to Uno Dr,ETOBICOKE,Unknown,1,43.631620,-79.506700,1770037200000,1782154800000,Low,None,ROAD_CLOSED,ROAD_CLOSED_CONSTRUCTION,BOTH_DIRECTIONS,Toronto Hydro,
Tor-RD52026-2082-1,The Queensway,The Queensway 11 m West of Burma Dr to 26 m Southwest of S Kingsway Queensway Ramp,ETOBICOKE and TORONTO,Major Arterial Road,1,43.627940,-79.495310,1779886800000,1780686000000,High,None,CONSTRUCTION,,ONE_DIRECTION,"{tabledata"":[{""Option"":""Other""""",
Tor-RD1H2026-846-2,Yorkview Dr,Yorkview Dr 15 m East of Islington Ave to 75 m East of Chartwell Rd,ETOBICOKE,Local Road,1,43.628580,-79.516650,1778497200000,1782846000000,Low,None,CONSTRUCTION,,ONE_DIRECTION,Toronto Hydro,
Tor-RD52026-2182,Cork Ave,Cork Ave 55 m East of Corona St to 76 m East of Corona St,NORTH YORK,Local Road,1,43.713750,-79.451460,1779800400000,1780426800000,Low,None,CONSTRUCTION,,ONE_DIRECTION,"{tabledata"":[{""Option"":""Toronto Water""""",
Tor-RD1H2026-247,Thirtieth St,Thirtieth St 15 m South of Davick Dr to 44 m South of Davick Dr,ETOBICOKE,Local Road,1,43.605030,-79.534060,1770638400000,1780686000000,Low,None,ROAD_CLOSED,ROAD_CLOSED_CONSTRUCTION,BOTH_DIRECTIONS,Toronto Hydro,
Tor-RD1H2026-553-6,Spadina Rd,Spadina Rd 30 m North of Archer Rd to 29 m South of Silverwood Ave,TORONTO,Minor Arterial Road,1,43.696350,-79.415900,1774868400000,1781290800000,Low,None,ROAD_CLOSED,ROAD_CLOSED_CONSTRUCTION,BOTH_DIRECTIONS,Toronto Hydro,
Tor-RD1H2026-827-4,Athol Ave,Athol Ave at Islington Ave to 3 m West of Chartwell Rd,ETOBICOKE,Local Road,1,43.626780,-79.516110,1778763600000,1785438000000,Low,None,CONSTRUCTION,,ONE_DIRECTION,Toronto Hydro,
Tor-RD1H2026-827-3,Nordin Ave,Nordin Ave 18 m West of Athol Ave to Athol Ave,ETOBICOKE,Local Road,1,43.626730,-79.516330,1778763600000,1785438000000,Low,None,CONSTRUCTION,,ONE_DIRECTION,Toronto Hydro,
Tor-RD1H2025-1020-2,Gibson Ave,Gibson Ave 19 m East of Ln W Yonge N Ramsden Park to 6 m East of Ramsden Park Trl,TORONTO,Local Road,1,43.677310,-79.389970,1769428800000,1798747200000,Low,None,CONSTRUCTION,,ONE_DIRECTION,Toronto Hydro,
Tor-RD1H2025-1020-1,South Dr,South Dr 5 m South of Crescent Rd to 6 m West of Mount Pleasant Rd,TORONTO,Local Road,1,43.678410,-79.382640,1769428800000,1798747200000,Low,None,CONSTRUCTION,,ONE_DIRECTION,Toronto Hydro,
Tor-RD1H2026-553-5,Spadina Rd,Spadina Rd 33 m North of Forest Hill Rd to 32 m North of Old Forest Hill Rd,TORONTO,Minor Arterial Road,1,43.700040,-79.417460,1774868400000,1781290800000,Low,None,CONSTRUCTION,,ONE_DIRECTION,Toronto Hydro,
Tor-RD1H2026-827-2,Lady Bank Rd,Lady Bank Rd 9 m North of Canmotor Ave to 4 m South of Athol Ave,ETOBICOKE,Local Road,1,43.624420,-79.511720,1778763600000,1785438000000,Low,None,CONSTRUCTION,,ONE_DIRECTION,Toronto Hydro,
Tor-RD1H2026-827-1,Chartwell Rd,Chartwell Rd 2 m Northwest of Athol Ave to 7 m North of The Queensway,ETOBICOKE,Local Road,1,43.627770,-79.511930,1778763600000,1785438000000,Low,None,CONSTRUCTION,,ONE_DIRECTION,Toronto Hydro,
Tor-RD1H2025-1020-3,Ramsden Park Rd,Ramsden Park Rd 21 m East of Ln W Yonge N Ramsden Park to Ramsden Park Trl,TORONTO,Local Road,1,43.676990,-79.389830,1769428800000,1798747200000,Low,None,CONSTRUCTION,,ONE_DIRECTION,Toronto Hydro,
Tor-RD1S2026-239-1,Jones Ave,Jones Ave 40 m North of C N R to 10 m North of Myrtle Ave,TORONTO,Minor Arterial Road,1,43.672320,-79.336920,1779195600000,1783708200000,Low,None,CONSTRUCTION,,ONE_DIRECTION,Other,
11803933-1,Carl Hall Rd,Carl Hall Rd beyond end of road to before Downsview Park Trl,NORTH YORK,Local Road,1,43.753510,-79.474210,1780164000000,1780201800000,Low,Low,CONSTRUCTION,,ONE_DIRECTION,Unknown,
11803933-2,Carl Hall Rd,Carl Hall Rd beyond end of road to before Downsview Park Trl,NORTH YORK,Local Road,1,43.751815,-79.477214,1780164000000,1780201800000,Low,Low,CONSTRUCTION,,ONE_DIRECTION,Unknown,
11803933-4,Carl Hall Rd,Carl Hall Rd beyond end of road to before Downsview Park Trl,NORTH YORK,Local Road,1,43.747786,-79.475742,1780164000000,1780201800000,Low,Low,CONSTRUCTION,,ONE_DIRECTION,Unknown,
11803933-3,Carl Hall Rd,Carl Hall Rd beyond end of road to before Downsview Park Trl,NORTH YORK,Local Road,1,43.748524,-79.474588,1780164000000,1780201800000,Low,Low,CONSTRUCTION,,ONE_DIRECTION,Unknown,
Tor-RD52026-99-1,Appleby Crt,Appleby Crt 8 m North of Lorraine Gdns to 6 m Southeast of end of road,ETOBICOKE,Local Road,1,43.653080,-79.549830,1774436400000,1790348400000,Low,None,ROAD_CLOSED,ROAD_CLOSED_CONSTRUCTION,BOTH_DIRECTIONS,"{tabledata"":[{""Option"":""Transportation Services""""",
Tor-RD52026-186-2,Martin Grove Rd,Martin Grove Rd 4 m South of Burnhamthorpe Rd to 20 m South of Burnhamthorpe Rd,ETOBICOKE,Local Road,1,43.648780,-79.548970,1773061200000,1780171200000,Low,Low,CONSTRUCTION,,ONE_DIRECTION,"[{option"":""Transportation Services""""",
Tor-RD1S2026-393-1,Steeles Ave W,Steeles Ave W 33 m East of C N R to 43 m West of C N R,NORTH YORK,Major Arterial Road,1,43.783990,-79.484070,1779195600000,1780689600000,High,High,CONSTRUCTION,,BOTH_DIRECTIONS,Other,
Tor-RD1S2026-239-2,Jones Ave,Jones Ave 6 m North of Myrtle Ave to 37 m North of C N R,TORONTO,Minor Arterial Road,1,43.671580,-79.336600,1779195600000,1783713600000,Low,Low,CONSTRUCTION,,ONE_DIRECTION,Other,
Tor-RD1H2026-961-1,Islington Ave,Islington Ave 30 m South of Finchley Rd to 9 m South of Finchley Rd,ETOBICOKE,Major Arterial Road,1,43.656560,-79.528650,1779368400000,1780603200000,High,High,CONSTRUCTION,,ONE_DIRECTION,Toronto Hydro,
Tor-RD042026-716,Twenty Sixth St,Twenty Sixth St 8 m South of end of road to 4 m South of end of road,ETOBICOKE,Local Road,1,43.601120,-79.526430,1779886800000,1782504000000,Low,Low,ROAD_CLOSED,ROAD_CLOSED_CONSTRUCTION,BOTH_DIRECTIONS,Metrolinx,
Tor-RD022026-95,Wellington St W,Wellington St W 74 m East of York St to 30 m East of York St,TORONTO,Minor Arterial Road,1,43.646800,-79.382130,1780146000000,1780174800000,Low,Low,CONSTRUCTION,,ONE_DIRECTION,Other,
Tor-RD1H2026-712-3,Royal York Rd,Royal York Rd at Norseman St to 94 m South of Norseman St,ETOBICOKE,Minor Arterial Road,1,43.636940,-79.507050,1777899600000,1785441600000,Low,Low,CONSTRUCTION,,ONE_DIRECTION,Toronto Hydro,
Tor-RD52026-1095,John Stoner Dr,John Stoner Dr 80 m Northwest of Shawn Blu Rose Park Trl to 55 m Southeast of Chad Cres,SCARBOROUGH,Local Road,1,43.813120,-79.209180,1779022800000,1780171200000,Low,Low,ROAD_CLOSED,ROAD_CLOSED_CONSTRUCTION,BOTH_DIRECTIONS,"{tabledata"":[{""Option"":""Toronto Water""""",
Tor-RD1H2026-711-1,Norseman St,Norseman St 21 m West of Islington Ave to 8 m East of Chartwell Rd,ETOBICOKE,Local Road,1,43.634150,-79.519380,1777899600000,1784145600000,Low,Low,CONSTRUCTION,,ONE_DIRECTION,Toronto Hydro,
Tor-RD1H2026-711-2,Norseman St,Norseman St 8 m East of Chartwell Rd to Islington Ave,ETOBICOKE,Local Road,1,43.635110,-79.515220,1777899600000,1784145600000,Low,Low,CONSTRUCTION,,ONE_DIRECTION,Toronto Hydro,
Tor-RD1H2026-940-2,Kingston Rd,Kingston Rd 7 m Southwest of Deep Dene Dr to 13 m Northeast of Highland Creek Parkette Trl,SCARBOROUGH,Minor Arterial Road,1,43.784920,-79.168170,1779886800000,1780257600000,Low,Low,CONSTRUCTION,,ONE_DIRECTION,Toronto Hydro,
Tor-RD042026-537,Wynford Dr,Wynford Dr 55 m East of Don Mills Rd to 37 m West of Gervais Dr,NORTH YORK,Minor Arterial Road,1,43.723110,-79.338900,1777640400000,1780257600000,Low,Low,CONSTRUCTION,,ONE_DIRECTION,Metrolinx,
Tor-RD52026-877-1,The Kingsway,The Kingsway at Lambeth Rd to 18 m South of Humbertown Way,ETOBICOKE,Local Road,1,43.660450,-79.518590,1776085200000,1790798400000,Low,Low,CONSTRUCTION,,ONE_DIRECTION,"{tabledata"":[{""Option"":""Toronto Water""""",
Tor-RD012026-694,Spadina Rd,Spadina Rd 16 m South of Montclair Ave to 13 m South of Bantry Ave,TORONTO,Minor Arterial Road,1,43.687630,-79.412390,1778504400000,1780689600000,Low,Low,CONSTRUCTION,,ONE_DIRECTION,Telecommunications,
Tor-RD042026-718-1,Fordhouse Blvd,Fordhouse Blvd 45 m West of Wickman Rd to Wickman Rd,ETOBICOKE,Local Road,1,43.617320,-79.531150,1779886800000,1782504000000,Low,Low,CONSTRUCTION,,ONE_DIRECTION,Metrolinx,
Tor-RD52026-186-3,Burnhamthorpe Rd,Burnhamthorpe Rd 3 m East of Martin Grove Rd to 54 m East of Martin Grove Rd,ETOBICOKE,Major Arterial Road,1,43.648820,-79.548940,1773061200000,1780171200000,High,High,CONSTRUCTION,,ONE_DIRECTION,"[{option"":""Transportation Services""""",
Tor-RD52026-1964-1,Queensway W 427 C N Ramp,Queensway W 427 C N Ramp 83 m West of The Queensway to The Queensway,ETOBICOKE,Expressway Ramp,1,43.616160,-79.548030,1779109200000,1782849600000,High,High,CONSTRUCTION,,ONE_DIRECTION,"{tabledata"":[{""Option"":""Transportation Services""""",
Tor-RD52026-877-2,The Kingsway,The Kingsway 18 m South of Humbertown Way to 17 m Northwest of Dundas St W,ETOBICOKE,Local Road,1,43.661560,-79.518690,1776085200000,1790798400000,Low,Low,CONSTRUCTION,,ONE_DIRECTION,"{tabledata"":[{""Option"":""Toronto Water""""",
Tor-RD042026-718-2,Wickman Rd,Wickman Rd at Fordhouse Blvd to 45 m North of Fordhouse Blvd,ETOBICOKE,Local Road,1,43.617430,-79.530610,1779886800000,1782504000000,Low,Low,CONSTRUCTION,,ONE_DIRECTION,Metrolinx,
Tor-RD012026-427-1,Lakeshore Rd E,Lakeshore Rd E 16 m Northeast of Island Rd to Etobicoke Creek,,Major Arterial Road,1,43.587440,-79.547750,1775048400000,1780344000000,High,High,CONSTRUCTION,,ONE_DIRECTION,Other,
Tor-RD012026-427-2,Lake Shore Blvd W,Lake Shore Blvd W at Etobicoke Creek to 16 m Southwest of Forty First St,ETOBICOKE,Major Arterial Road,1,43.588930,-79.546410,1775048400000,1780344000000,High,High,CONSTRUCTION,,ONE_DIRECTION,Other,
Tor-RD042026-327,Eglinton Ave W,Eglinton Ave W 72 m West of Royal York Rd to 241 m West of Royal York Rd,ETOBICOKE,Major Arterial Road,1,43.682110,-79.527450,1775134800000,1782849600000,High,High,CONSTRUCTION,,ONE_DIRECTION,Metrolinx,
Tor-RD012026-809,Roehampton Ave,Roehampton Ave 78 m West of Mount Pleasant Rd to 57 m West of Mount Pleasant Rd,TORONTO,Local Road,1,43.709430,-79.391550,1779714000000,1780689600000,Low,Low,CONSTRUCTION,,ONE_DIRECTION,Telecommunications,
Tor-RD1H2026-302-1,Steeles Ave E,Steeles Ave E 8 m East of Mountcastle Gt to 34 m West of Ww W Birchmount S Steeles,,Major Arterial Road,1,43.820600,-79.320360,1772460000000,1783713600000,High,High,CONSTRUCTION,,ONE_DIRECTION,Toronto Hydro,
Tor-RD1H2026-302-2,Steeles Ave E,Steeles Ave E 8 m East of Mountcastle Gt to 36 m West of Ww W Birchmount S Steeles,,Major Arterial Road,1,43.820600,-79.320360,1772460000000,1783713600000,High,High,CONSTRUCTION,,ONE_DIRECTION,Toronto Hydro,
Tor-RD042026-698-1,Eglinton Ave W,Eglinton Ave W 31 m East of Islington Ave to 32 m West of Islington Ave,ETOBICOKE,Major Arterial Road,1,43.679910,-79.538640,1779800400000,1782849600000,High,High,CONSTRUCTION,,BOTH_DIRECTIONS,Metrolinx,
Tor-RD042026-698-2,Eglinton Ave W,Eglinton Ave W 32 m West of Islington Ave to Islington Ave,ETOBICOKE,Major Arterial Road,1,43.679750,-79.539390,1779800400000,1782849600000,High,High,CONSTRUCTION,,BOTH_DIRECTIONS,Metrolinx,
Tor-RD042026-698-3,Islington Ave,Islington Ave at Eglinton Ave W to 17 m North of Eglinton Ave W,ETOBICOKE,Major Arterial Road,1,43.679840,-79.539010,1779800400000,1782849600000,High,High,CONSTRUCTION,,BOTH_DIRECTIONS,Metrolinx,
Tor-RD1S2026-468,Royal York Rd,Royal York Rd 8 m South of Lambeth Rd to 27 m South of Humbertown Way,ETOBICOKE,Minor Arterial Road,1,43.660790,-79.517340,1776949200000,1780171200000,Low,Low,CONSTRUCTION,,ONE_DIRECTION,Other,
Tor-RD1H2026-302-5,Steeles Ave E,Steeles Ave E 123 m West of Kelvin Grove Ave to 48 m West of Kelvin Grove Ave,,Major Arterial Road,1,43.822150,-79.313680,1772460000000,1783713600000,High,High,CONSTRUCTION,,ONE_DIRECTION,Toronto Hydro,
Tor-RD1H2026-302-6,Steeles Ave E,Steeles Ave E 47 m West of Kelvin Grove Ave to 3 m West of Kelvin Grove Ave,,Major Arterial Road,1,43.822370,-79.312780,1772460000000,1783713600000,High,High,CONSTRUCTION,,ONE_DIRECTION,Toronto Hydro,
Tor-RD52026-186-7,Burnhamthorpe Rd,Burnhamthorpe Rd 46 m West of Martin Grove Rd to 6 m West of Martin Grove Rd,ETOBICOKE,Major Arterial Road,1,43.648680,-79.549520,1773061200000,1780171200000,High,High,CONSTRUCTION,,BOTH_DIRECTIONS,"[{option"":""Transportation Services""""",
Tor-RD52026-186-8,Martin Grove Rd,Martin Grove Rd 6 m South of Burnhamthorpe Rd to 17 m South of Burnhamthorpe Rd,ETOBICOKE,Local Road,1,43.648750,-79.548960,1773061200000,1780171200000,Low,Low,CONSTRUCTION,,BOTH_DIRECTIONS,"[{option"":""Transportation Services""""",
Tor-RD52026-1089-1,Flempton Cres,Flempton Cres 86 m East of Ionview Rd to 67 m East of Ionview Rd,SCARBOROUGH,Unknown,1,43.738960,-79.273190,1779714000000,1780171200000,Low,Low,ROAD_CLOSED,ROAD_CLOSED_CONSTRUCTION,BOTH_DIRECTIONS,"{tabledata"":[{""Option"":""Toronto Water""""",
Tor-RD52026-1089-2,Flempton Cres,Flempton Cres 104 m Northeast of Ionview Rd to 106 m East of Ionview Rd,SCARBOROUGH,Local Road,1,43.738300,-79.272910,1779714000000,1780171200000,Low,Low,ROAD_CLOSED,ROAD_CLOSED_CONSTRUCTION,BOTH_DIRECTIONS,"{tabledata"":[{""Option"":""Toronto Water""""",
Tor-RD52026-2512,Barkwin Dr,Barkwin Dr 26 m East of Islington Ave to 48 m West of Batawa Cres,ETOBICOKE,Local Road,1,43.738230,-79.565430,1780146000000,1781582340000,Low,Low,CONSTRUCTION,,ONE_DIRECTION,"{tabledata"":[{""Option"":""Transportation Services""""",
Tor-RD1H2026-711-3,Islington Ave,Islington Ave at Norseman St to 28 m North of Norseman St,ETOBICOKE,Major Arterial Road,1,43.634220,-79.519130,1777899600000,1784145600000,High,High,CONSTRUCTION,,ONE_DIRECTION,Toronto Hydro,
Tor-RD042026-611-1,Eglinton Ave W,Eglinton Ave W 113 m West of Kipling Ave to 26 m East of Kipling Ave,ETOBICOKE,Major Arterial Road,1,43.676870,-79.552230,1778504400000,1785528000000,High,High,CONSTRUCTION,,ONE_DIRECTION,Metrolinx,
Tor-RD042026-611-2,Eglinton Ave W,Eglinton Ave W 26 m East of Kipling Ave to Kipling Ave,ETOBICOKE,Major Arterial Road,1,43.677260,-79.550580,1778504400000,1785528000000,High,High,CONSTRUCTION,,BOTH_DIRECTIONS,Metrolinx,
Tor-RD042026-611-3,Kipling Ave,Kipling Ave at Eglinton Ave W to 27 m North of Eglinton Ave W,ETOBICOKE,Major Arterial Road,1,43.677180,-79.550890,1778504400000,1785528000000,High,High,CONSTRUCTION,,BOTH_DIRECTIONS,Metrolinx,
Tor-RD1H2026-712-1,Norseman St,Norseman St at Royal York Rd to 5 m East of Chartwell Rd,ETOBICOKE,Local Road,1,43.636940,-79.507050,1777899600000,1785441600000,Low,Low,CONSTRUCTION,,ONE_DIRECTION,Toronto Hydro,
Tor-RD1H2026-712-2,Norseman St,Norseman St 5 m East of Chartwell Rd to Royal York Rd,ETOBICOKE,Local Road,1,43.635100,-79.515250,1777899600000,1785441600000,Low,Low,CONSTRUCTION,,ONE_DIRECTION,Toronto Hydro,
Tor-RDAR2024-3900-1,Ln S Queen W Spadina,Ln S Queen W Spadina 19m West of Spadina Ave,TORONTO,Major Arterial Road,1,43.648280,-79.396610,1767276000000,1793476800000,High,High,CONSTRUCTION,,ONE_DIRECTION,Other,
Tor-RDAR2024-3900-2,Queen St W,Queen St W from Cameron St to Spadina Ave,TORONTO,Major Arterial Road,1,43.648540,-79.397410,1767276000000,1793476800000,High,High,CONSTRUCTION,,ONE_DIRECTION,Other,
Tor-RD1H2026-940-1,Kingston Rd,Kingston Rd 5 m Northeast of Deep Dene Dr to 12 m Northeast of Deep Dene Dr,SCARBOROUGH,Minor Arterial Road,1,43.784990,-79.168060,1779886800000,1780257600000,Low,Low,CONSTRUCTION,,ONE_DIRECTION,Toronto Hydro,
Tor-RD042026-611-4,Kipling Ave,Kipling Ave 27 m North of Eglinton Ave W to 22 m South of Eglinton Ave West Trl,ETOBICOKE,Major Arterial Road,1,43.677410,-79.550990,1778504400000,1785528000000,High,High,CONSTRUCTION,,ONE_DIRECTION,Metrolinx,
Tor-RD042026-499,Millwood Rd,Millwood Rd 16 m East of Hepc to 74 m West of Hepc,EAST YORK,Major Arterial Road,1,43.702050,-79.354440,1777640400000,1780257600000,High,High,CONSTRUCTION,,ONE_DIRECTION,Metrolinx,
Tor-RD52026-1504-1,Sheppard Ave E,Sheppard Ave E 88 m East of Markham Rd to 72 m West of Neilson Rd,SCARBOROUGH,Major Arterial Road,1,43.794090,-79.237700,1778850000000,1780257600000,High,High,CONSTRUCTION,,ONE_DIRECTION,"{tabledata"":[{""Option"":""Other""""",
Tor-RD52026-1504-2,Sheppard Ave E,Sheppard Ave E 87 m East of Markham Rd to 73 m West of Neilson Rd,SCARBOROUGH,Major Arterial Road,1,43.794090,-79.237710,1778850000000,1780257600000,High,High,CONSTRUCTION,,ONE_DIRECTION,"{tabledata"":[{""Option"":""Other""""",
Tor-RD52026-186-4,Burnhamthorpe Rd,Burnhamthorpe Rd 45 m West of Martin Grove Rd to 7 m West of Martin Grove Rd,ETOBICOKE,Major Arterial Road,1,43.648680,-79.549520,1773061200000,1780171200000,High,High,CONSTRUCTION,,ONE_DIRECTION,"[{option"":""Transportation Services""""",
Tor-RD52026-186-5,Martin Grove Rd,Martin Grove Rd 4 m North of Burnhamthorpe Rd to 20 m North of Burnhamthorpe Rd,ETOBICOKE,Local Road,1,43.648840,-79.549000,1773061200000,1780171200000,Low,Low,CONSTRUCTION,,ONE_DIRECTION,"[{option"":""Transportation Services""""",
Tor-RD52026-186-6,Burnhamthorpe Rd,Burnhamthorpe Rd 3 m East of Martin Grove Rd to 37 m East of Martin Grove Rd,ETOBICOKE,Major Arterial Road,1,43.648810,-79.548950,1773061200000,1780171200000,High,High,CONSTRUCTION,,ONE_DIRECTION,"[{option"":""Transportation Services""""",
Tor-RD52026-2052-1,Pauline Ave,Pauline Ave 65 m South of Wallace Ave to 44 m South of Wallace Ave,TORONTO,Local Road,1,43.662840,-79.439000,1780146000000,1780171200000,Low,Low,CONSTRUCTION,,ONE_DIRECTION,"{tabledata"":[{""Option"":""Transportation Services""""",
Tor-RD52026-2052-2,Pauline Ave,Pauline Ave 65 m South of Wallace Ave to 35 m South of Wallace Ave,TORONTO,Local Road,1,43.662840,-79.439000,1780146000000,1780171200000,Low,Low,CONSTRUCTION,,ONE_DIRECTION,"{tabledata"":[{""Option"":""Transportation Services""""",
Tor-RD042026-590,Evans Ave,Evans Ave 9 m West of C P R to 12 m East of C P R,ETOBICOKE,Major Arterial Road,1,43.615060,-79.529480,1778504400000,1782504000000,High,High,CONSTRUCTION,,ONE_DIRECTION,Metrolinx,
Tor-RD012026-162,Albion Rd,Albion Rd 8 m Southeast of Riverdale Dr to 31 m Southeast of Riverdale Dr,ETOBICOKE,Major Arterial Road,1,43.735320,-79.561310,1773666000000,1780171200000,High,High,CONSTRUCTION,,ONE_DIRECTION,Watermain,
Tor-RD1H2026-302-7,Steeles Ave E,Steeles Ave E at Kelvin Grove Ave to 176 m West of Kennedy Rd,SCARBOROUGH,Major Arterial Road,1,43.822500,-79.312220,1772460000000,1783713600000,High,High,CONSTRUCTION,,ONE_DIRECTION,Toronto Hydro,
Tor-RD042026-715,Wickman Rd,Wickman Rd 25 m North of Evans Ave to 8 m North of Evans Ave,ETOBICOKE,Local Road,1,43.615250,-79.529690,1779886800000,1782504000000,Low,Low,CONSTRUCTION,,ONE_DIRECTION,Metrolinx,
Tor-RD52026-1964-2,The Queensway,The Queensway at Queensway W 427 C N Ramp to 19 m West of Vansco Rd,ETOBICOKE,Expressway Ramp,1,43.616270,-79.547010,1779109200000,1782849600000,High,High,CONSTRUCTION,,ONE_DIRECTION,"{tabledata"":[{""Option"":""Transportation Services""""",
Tor-RD042026-594,Horner Ave,Horner Ave 4 m West of C P R to 8 m East of C P R,ETOBICOKE,Minor Arterial Road,1,43.606120,-79.525620,1778504400000,1782504000000,Low,Low,ROAD_CLOSED,ROAD_CLOSED_CONSTRUCTION,BOTH_DIRECTIONS,Metrolinx,
Tor-RD012026-796,Venture Dr,Venture Dr 84 m South of Thornmount Dr to 3 m South of Casebridge Crt,SCARBOROUGH,Local Road,1,43.806910,-79.199080,1779800400000,1781035200000,Low,Low,CONSTRUCTION,,ONE_DIRECTION,Telecommunications,
Tor-RD52026-186-1,Burnhamthorpe Rd,Burnhamthorpe Rd 2 m East of Burnelm Dr to 6 m West of Martin Grove Rd,ETOBICOKE,Major Arterial Road,1,43.648520,-79.550160,1773061200000,1780171200000,High,High,CONSTRUCTION,,ONE_DIRECTION,"[{option"":""Transportation Services""""",
Tor-RD52026-1264,St Leonard's Ave,St Leonard's Ave at Bayview Ave to 10 m East of St Leonard's Cres,NORTH YORK,Local Road,1,43.725580,-79.380200,1778068800000,1780516800000,Low,Low,CONSTRUCTION,,ONE_DIRECTION,"{tabledata"":[{""Option"":""Transportation Services""""",
Tor-RD012026-526,Spadina Rd,Spadina Rd 21 m South of Bilton Lane to 1 m South of Bilton Lane,TORONTO,Minor Arterial Road,1,43.689630,-79.413080,1779451200000,1780691400000,Low,Low,CONSTRUCTION,,BOTH_DIRECTIONS,Telecommunications,
Tor-RD1H2026-738-10,Grenview Blvd S,Grenview Blvd S at Clueson Pk to 15 m West of Prince Edward Dr S,ETOBICOKE,Local Road,1,43.635730,-79.501910,1777462200000,1783108800000,Low,Low,CONSTRUCTION,,ONE_DIRECTION,Toronto Hydro,
Tor-RD1H2026-738-12,Caledon Rd,Caledon Rd at Grenview Blvd S to 10 m North of Berry Rd,ETOBICOKE,Local Road,1,43.635040,-79.500910,1777462200000,1783108800000,Low,Low,CONSTRUCTION,,ONE_DIRECTION,Toronto Hydro,
Tor-RD1H2026-738-1,Fairmar Ave,Fairmar Ave 19 m West of Prince Edward Dr S to 2 m East of Grenview Blvd S,ETOBICOKE,Local Road,1,43.637440,-79.500940,1777462200000,1783108800000,Low,Low,CONSTRUCTION,,ONE_DIRECTION,Toronto Hydro,
Tor-RD1H2026-738-2,Fairmar Ave,Fairmar Ave 2 m East of Grenview Blvd S to Grenview Blvd S,ETOBICOKE,Local Road,1,43.637010,-79.502960,1777462200000,1783108800000,Low,Low,CONSTRUCTION,,ONE_DIRECTION,Toronto Hydro,
Tor-RD1H2026-738-6,Elderidge Ave,Elderidge Ave 16 m West of Prince Edward Dr S to Grenview Blvd S,ETOBICOKE,Local Road,1,43.636770,-79.500590,1777462200000,1783108800000,Low,Low,CONSTRUCTION,,ONE_DIRECTION,Toronto Hydro,
Tor-RD1H2026-738-7,Grenview Blvd S,Grenview Blvd S from Elderidge Ave to Clueson Pk,ETOBICOKE,Local Road,1,43.636410,-79.502200,1777462200000,1783108800000,Low,Low,CONSTRUCTION,,ONE_DIRECTION,Toronto Hydro,
Tor-RD1H2026-738-8,Clueson Pk,Clueson Pk from Grenview Blvd S to end of road,ETOBICOKE,Local Road,1,43.635730,-79.501910,1777462200000,1783108800000,Low,Low,CONSTRUCTION,,ONE_DIRECTION,Toronto Hydro,
Tor-RD1H2026-738-3,Grenview Blvd S,Grenview Blvd S from Fairmar Ave to Elderidge Ave,ETOBICOKE,Local Road,1,43.637000,-79.502980,1777462200000,1783108800000,Low,Low,CONSTRUCTION,,ONE_DIRECTION,Toronto Hydro,
Tor-RD1H2026-738-4,Elderidge Ave,Elderidge Ave at Grenview Blvd S to 3 m West of Grenview Blvd S,ETOBICOKE,Local Road,1,43.636430,-79.502720,1777462200000,1783108800000,Low,Low,CONSTRUCTION,,ONE_DIRECTION,Toronto Hydro,
Tor-RD1H2026-738-9,Clueson Pk,Clueson Pk from end of road to Grenview Blvd S,ETOBICOKE,Local Road,1,43.635890,-79.501170,1777462200000,1783108800000,Low,Low,CONSTRUCTION,,ONE_DIRECTION,Toronto Hydro,
Tor-RD1H2026-738-11,Grenview Blvd S,Grenview Blvd S 15 m West of Prince Edward Dr S to Caledon Rd,ETOBICOKE,Local Road,1,43.635390,-79.500000,1777462200000,1783108800000,Low,Low,CONSTRUCTION,,ONE_DIRECTION,Toronto Hydro,
Tor-RD1H2026-738-5,Elderidge Ave,Elderidge Ave 3 m West of Grenview Blvd S to 16 m West of Prince Edward Dr S,ETOBICOKE,Local Road,1,43.636410,-79.502230,1777462200000,1783108800000,Low,Low,CONSTRUCTION,,ONE_DIRECTION,Toronto Hydro,
Tor-RD042026-342-7,Langley Ave,Langley Ave 3 m West of Pape Ave to 2 m West of Ln W Pape S Langley,TORONTO,Local Road,1,43.670240,-79.341340,1774868400000,1785445200000,Low,Low,ROAD_CLOSED,ROAD_CLOSED_CONSTRUCTION,BOTH_DIRECTIONS,Metrolinx,
Tor-RD1H2026-739-3,Stephney Dr,Stephney Dr 15 m West of Delma Dr to 14 m East of Norfolk Ave,ETOBICOKE,Local Road,1,43.605270,-79.551680,1777287600000,1787864400000,Low,Low,CONSTRUCTION,,ONE_DIRECTION,Toronto Hydro,
Tor-RD1H2026-739-4,Stephney Dr,Stephney Dr 14 m East of Norfolk Ave to 4 m East of Norfolk Ave,ETOBICOKE,Local Road,1,43.605080,-79.552480,1777287600000,1787864400000,Low,Low,CONSTRUCTION,,ONE_DIRECTION,Toronto Hydro,
Tor-RD1H2026-739-2,Delma Dr,Delma Dr 11 m South of Stephney Dr to 15 m North of Stephney Dr,ETOBICOKE,Local Road,1,43.605210,-79.551460,1777287600000,1787864400000,Low,Low,CONSTRUCTION,,ONE_DIRECTION,Toronto Hydro,
Tor-RD012026-310-6,Duvernet Ave,Duvernet Ave at Glenmore Rd to 11 m West of Glenmore Rd,TORONTO,Local Road,1,43.677020,-79.310480,1774868400000,1780174800000,Low,Low,CONSTRUCTION,,ONE_DIRECTION,Watermain,
Tor-RD012026-310-7,Glenmore Rd,Glenmore Rd 58 m South of Fairmount Cres to 82 m South of Fairmount Cres,TORONTO,Local Road,1,43.678200,-79.310970,1774868400000,1780174800000,Low,Low,CONSTRUCTION,,ONE_DIRECTION,Watermain,
Tor-RD042026-710,Humber College Blvd,Humber College Blvd 21 m East of Windwood Dr to 22 m West of Arboretum Blvd,ETOBICOKE,Minor Arterial Road,1,43.730040,-79.604680,1780052400000,1780286340000,Low,Low,CONSTRUCTION,,ONE_DIRECTION,Metrolinx,
Tor-RD052025-1044-3,Sorauren Ave,Sorauren Ave 28 m North of Ln N Queen E Sorauren to 3 m South of Marion St,TORONTO,Local Road,1,43.640400,-79.441180,1776078000000,1783717200000,Low,Low,ROAD_CLOSED,ROAD_CLOSED_CONSTRUCTION,BOTH_DIRECTIONS,Transportation Services,
Tor-RD052025-1044-2,Queen St W,Queen St W 2 m West of Sorauren Ave to 1 m East of Beaty Ave,TORONTO,Major Arterial Road,1,43.639730,-79.440960,1776078000000,1783717200000,High,High,CONSTRUCTION,,BOTH_DIRECTIONS,Transportation Services,
Tor-RD52026-2316-2,Plowshare Cres,Plowshare Cres 143 m Southwest of Plowshare Park Trl to 20 m North of Plowshare Park Trl,ETOBICOKE,Local Road,1,43.755650,-79.597910,1779879600000,1782860400000,Low,Low,CONSTRUCTION,,ONE_DIRECTION,"{tabledata"":[{""Option"":""Transportation Services""""",
Tor-RD52026-2316-1,Maxine Rd,Maxine Rd 10 m North of Kidron Valley Dr to 14 m Northeast of Kidron Valley Dr,ETOBICOKE,Local Road,1,43.756180,-79.591010,1779879600000,1782860400000,Low,Low,ROAD_CLOSED,ROAD_CLOSED_CONSTRUCTION,BOTH_DIRECTIONS,"{tabledata"":[{""Option"":""Transportation Services""""",
Tor-RD042026-687,Don Mills Rd,Don Mills Rd 37 m South of Rochefort Dr to 3 m South of St Dennis Dr,NORTH YORK,Major Arterial Road,1,43.717700,-79.337800,1779793200000,1781467200000,High,High,CONSTRUCTION,,ONE_DIRECTION,Utility,
Tor-RD1S2026-650,Marcel Rd,Marcel Rd 11 m Northeast of Frost Park Trl to 17 m South of Frost Park Trl,ETOBICOKE,Local Road,1,43.713760,-79.566030,1779966000000,1780441200000,Low,Low,ROAD_CLOSED,ROAD_CLOSED_CONSTRUCTION,BOTH_DIRECTIONS,Other,
Tor-RD52026-2098,Mulholland Ave,Mulholland Ave 15 m North of Dane Ave to 15 m North of Dane Ave,NORTH YORK,Local Road,1,43.716760,-79.454090,1779879600000,1780441200000,Low,Low,CONSTRUCTION,,ONE_DIRECTION,"{tabledata"":[{""Option"":""Toronto Water""""",
Tor-RD1H2026-933-11,Hargrove Lane,Hargrove Lane 14 m North of Ecker Dr to 1 m North of Ecker Dr,ETOBICOKE,Local Road,1,43.606950,-79.552180,1779966000000,1788210000000,Low,Low,CONSTRUCTION,,ONE_DIRECTION,Toronto Hydro,
Tor-RD042026-628-1,Ferrand Dr,Ferrand Dr 2 m North of Rochefort Dr to 13 m South of Wilket Creek Rd,NORTH YORK,Local Road,1,43.718750,-79.334970,1779706800000,1780689600000,Low,Low,ROAD_CLOSED,ROAD_CLOSED_CONSTRUCTION,BOTH_DIRECTIONS,Utility,
Tor-RD1H2026-739-6,Putney Rd,Putney Rd 16 m West of Norfolk Ave to 3 m West of Norfolk Ave,ETOBICOKE,Local Road,1,43.604560,-79.552640,1777287600000,1787864400000,Low,Low,CONSTRUCTION,,ONE_DIRECTION,Toronto Hydro,
Tor-RD1H2026-739-7,Putney Rd,Putney Rd 19 m West of Norfolk Ave to 22 m Northeast of Westhead Rd,ETOBICOKE,Local Road,1,43.604550,-79.552680,1777287600000,1787864400000,Low,Low,CONSTRUCTION,,ONE_DIRECTION,Toronto Hydro,
Tor-RD1H2026-739-8,Putney Rd,Putney Rd 20 m Northeast of Westhead Rd to 4 m Northeast of Westhead Rd,ETOBICOKE,Local Road,1,43.603990,-79.554890,1777287600000,1787864400000,Low,Low,CONSTRUCTION,,ONE_DIRECTION,Toronto Hydro,
Tor-RD1H2026-739-9,Westhead Rd,Westhead Rd 14 m Northwest of Putney Rd to 11 m Southeast of Putney Rd,ETOBICOKE,Local Road,1,43.603970,-79.555190,1777287600000,1787864400000,Low,Low,CONSTRUCTION,,ONE_DIRECTION,Toronto Hydro,
Tor-RD1H2026-739-10,Westhead Rd,Westhead Rd 14 m Southeast of Putney Rd to 19 m Northwest of Dunning Cres,ETOBICOKE,Local Road,1,43.603770,-79.554990,1777287600000,1787864400000,Low,Low,CONSTRUCTION,,ONE_DIRECTION,Toronto Hydro,
Tor-RD1H2026-739-5,Norfolk Ave,Norfolk Ave 12 m North of Stephney Dr to 9 m South of Putney Rd,ETOBICOKE,Local Road,1,43.605140,-79.552680,1777287600000,1787864400000,Low,Low,CONSTRUCTION,,ONE_DIRECTION,Toronto Hydro,
Tor-RD052025-1044-4,Sorauren Ave,Sorauren Ave 8 m North of Marion St to 5 m South of Pearson Ave,TORONTO,Local Road,1,43.642170,-79.441870,1776078000000,1783717200000,Low,Low,ROAD_CLOSED,ROAD_CLOSED_CONSTRUCTION,BOTH_DIRECTIONS,Transportation Services,
Tor-RD052025-1044-5,Sorauren Ave,Sorauren Ave 6 m North of Pearson Ave to 6 m South of Galley Ave,TORONTO,Local Road,1,43.643030,-79.442210,1776078000000,1783717200000,Low,Low,ROAD_CLOSED,ROAD_CLOSED_CONSTRUCTION,BOTH_DIRECTIONS,Transportation Services,
Tor-RD52026-2151,Hunter Ave,Hunter Ave 2 m West of Dufferin St to 6 m West of Dynevor Rd,YORK,Local Road,1,43.694430,-79.449780,1779361200000,1785538800000,Low,Low,ROAD_CLOSED,ROAD_CLOSED_CONSTRUCTION,BOTH_DIRECTIONS,"{tabledata"":[{""Option"":""Transportation Services""""",
Tor-RD1H2026-933-12,Ecker Dr,Ecker Dr 7 m East of Hargrove Lane to 10 m West of Hargrove Lane,ETOBICOKE,Local Road,1,43.606850,-79.552040,1779966000000,1788210000000,Low,Low,CONSTRUCTION,,BOTH_DIRECTIONS,Toronto Hydro,
Tor-RD012026-138-1,Magnificent Rd,Magnificent Rd 10 m West of end of road to 47 m Northwest of end of road,ETOBICOKE,Local Road,1,43.611030,-79.511270,1771243200000,1780268400000,Low,Low,CONSTRUCTION,,ONE_DIRECTION,Watermain,
Tor-RD1H2026-723-8,Dane Ave,Dane Ave 7 m West of Highland Hill to 14 m East of Highland Hill,NORTH YORK,Local Road,1,43.717320,-79.449830,1776942000000,1780606800000,Low,Low,CONSTRUCTION,,ONE_DIRECTION,Toronto Hydro,
Tor-RD1H2026-723-9,Dane Ave,Dane Ave 14 m East of Highland Hill to Highland Hill,NORTH YORK,Local Road,1,43.717380,-79.449570,1776942000000,1780606800000,Low,Low,CONSTRUCTION,,ONE_DIRECTION,Toronto Hydro,
Tor-RD012026-310-1,Glenmore Rd,Glenmore Rd 9 m North of Ln S Gerrard E Glenmore to 26 m South of Ln S Gerrard E Glenmore,TORONTO,Local Road,1,43.680260,-79.311820,1774868400000,1780174800000,Low,Low,CONSTRUCTION,,ONE_DIRECTION,Watermain,
Tor-RD012026-310-2,Glenmore Rd,Glenmore Rd 32 m North of Fairmount Cres to 11 m North of Fairmount Cres,TORONTO,Local Road,1,43.678970,-79.311280,1774868400000,1780174800000,Low,Low,CONSTRUCTION,,ONE_DIRECTION,Watermain,
Tor-RD012026-309-1,Yardley Ave,Yardley Ave from Westview Blvd to Victoria Park Ave,EAST YORK,Local Road,1,43.712040,-79.306330,1774868400000,1780174800000,Low,Low,ROAD_CLOSED,ROAD_CLOSED_CONSTRUCTION,BOTH_DIRECTIONS,Watermain,
Tor-RD012026-309-2,Barron Rd,Barron Rd 31 m South of Galbraith Ave to 21 m North of Yardley Ave,EAST YORK,Local Road,1,43.712950,-79.304020,1774868400000,1780174800000,Low,Low,CONSTRUCTION,,ONE_DIRECTION,Watermain,
Tor-RD012026-310-3,Glenmore Rd,Glenmore Rd 57 m South of Ln S Gerrard E Glenmore to 86 m South of Ln S Gerrard E Glenmore,TORONTO,Local Road,1,43.679700,-79.311580,1774868400000,1780174800000,Low,Low,CONSTRUCTION,,ONE_DIRECTION,Watermain,
Tor-RD012026-139-1,Buckingham St,Buckingham St 3 m South of Wesley St to 15 m South of Wesley St,ETOBICOKE,Local Road,1,43.619730,-79.496500,1771243200000,1780182000000,Low,Low,ROAD_CLOSED,ROAD_CLOSED_CONSTRUCTION,BOTH_DIRECTIONS,Watermain,
Tor-RD52026-1164-1,Dunraven Dr,Dunraven Dr 13 m Southwest of Silverthorn Ave to 8 m East of Kane Ave,YORK,Unknown,1,43.685360,-79.466400,1777374000000,1790803800000,Low,Low,ROAD_CLOSED,ROAD_CLOSED_CONSTRUCTION,BOTH_DIRECTIONS,"{tabledata"":[{""Option"":""Toronto Water""""",
Tor-RD012026-139-2,Buckingham St,Buckingham St 49 m South of Wesley St to 76 m South of Wesley St,ETOBICOKE,Local Road,1,43.619330,-79.496330,1771243200000,1780182000000,Low,Low,ROAD_CLOSED,ROAD_CLOSED_CONSTRUCTION,BOTH_DIRECTIONS,Watermain,
Tor-RD052026-197-2,Danforth Ave,Danforth Ave 5 m East of Barrington Ave to 7 m West of Barrington Ave,TORONTO,Major Arterial Road,1,43.688460,-79.300480,1771329600000,1780700400000,High,High,CONSTRUCTION,,ONE_DIRECTION,Toronto Water,
Tor-RD052026-197-3,Danforth Ave,Danforth Ave 64 m East of Barrington Ave to 34 m West of Barrington Ave,TORONTO,Major Arterial Road,1,43.688620,-79.299780,1771329600000,1780700400000,High,High,CONSTRUCTION,,ONE_DIRECTION,Toronto Water,
Tor-RD052026-197-4,Danforth Ave,Danforth Ave 5 m West of Dawes Rd to 40 m East of Guest Ave,TORONTO,Major Arterial Road,1,43.689290,-79.296850,1771329600000,1780700400000,High,High,CONSTRUCTION,,BOTH_DIRECTIONS,Toronto Water,
Tor-RD052026-197-5,Danforth Ave,Danforth Ave 3 m East of Main St to 22 m East of Main St,TORONTO,Major Arterial Road,1,43.688150,-79.301790,1771329600000,1780700400000,High,High,CONSTRUCTION,,BOTH_DIRECTIONS,Toronto Water,
Tor-RD1H2026-739-1,Stephney Dr,Stephney Dr 11 m West of Delma Dr to Delma Dr,ETOBICOKE,Local Road,1,43.605280,-79.551630,1777287600000,1787864400000,Low,Low,CONSTRUCTION,,ONE_DIRECTION,Toronto Hydro,
Tor-RD52026-690-4,Berkeley St,Berkeley St 7 m North of King St E to 9 m South of Adelaide St E,TORONTO,Local Road,1,43.652190,-79.364410,1776078000000,1785538800000,Low,Low,CONSTRUCTION,,ONE_DIRECTION,"{tabledata"":[{""Option"":""Transportation Services""""",
Tor-RD52026-690-5,Berkeley St,Berkeley St 10 m South of Richmond St E to 10 m North of Adelaide St E,TORONTO,Local Road,1,43.654180,-79.365260,1776078000000,1785538800000,Low,Low,CONSTRUCTION,,ONE_DIRECTION,"{tabledata"":[{""Option"":""Transportation Services""""",
Tor-RD52026-690-6,Berkeley St,Berkeley St 8 m South of Adelaide St E to 11 m North of King St E,TORONTO,Local Road,1,43.652930,-79.364730,1776078000000,1785538800000,Low,Low,CONSTRUCTION,,ONE_DIRECTION,"{tabledata"":[{""Option"":""Transportation Services""""",
Tor-RD52026-874-13,Model Ave,Model Ave 13 m West of Faywood Blvd to Faywood Blvd,NORTH YORK,Local Road,1,43.738000,-79.447330,1775559600000,1797631200000,Low,Low,CONSTRUCTION,,ONE_DIRECTION,"{tabledata"":[{""Option"":""Toronto Water""""",
Tor-RD52026-874-14,Faywood Blvd,Faywood Blvd at Model Ave to 15 m South of Goodwill Ave,NORTH YORK,Local Road,1,43.738030,-79.447180,1775559600000,1797631200000,Low,Low,CONSTRUCTION,,ONE_DIRECTION,"{tabledata"":[{""Option"":""Toronto Water""""",
Tor-RD52026-874-15,Faywood Blvd,Faywood Blvd 15 m South of Goodwill Ave to Goodwill Ave,NORTH YORK,Local Road,1,43.736800,-79.446900,1775559600000,1797631200000,Low,Low,CONSTRUCTION,,ONE_DIRECTION,"{tabledata"":[{""Option"":""Toronto Water""""",
Tor-RD52026-874-16,Goodwill Ave,Goodwill Ave at Faywood Blvd to 29 m Northeast of Wilson Heights Blvd,NORTH YORK,Local Road,1,43.736940,-79.446930,1775559600000,1797631200000,Low,Low,CONSTRUCTION,,ONE_DIRECTION,"{tabledata"":[{""Option"":""Toronto Water""""",
Tor-RD1H2026-723-2,Highland Hill,Highland Hill 31 m South of Sparrow Ave to 67 m South of Sparrow Ave,NORTH YORK,Local Road,1,43.721650,-79.450620,1776942000000,1780606800000,Low,Low,CONSTRUCTION,,ONE_DIRECTION,Toronto Hydro,
Tor-RD1H2026-723-3,Stockton Rd,Stockton Rd 26 m West of Clovis Lane to 3 m West of Clovis Lane,NORTH YORK,Local Road,1,43.720750,-79.450000,1776942000000,1780606800000,Low,Low,CONSTRUCTION,,ONE_DIRECTION,Toronto Hydro,
Tor-RD1H2026-723-4,Highland Hill,Highland Hill 33 m South of Stockton Rd to 39 m North of Creston Rd,NORTH YORK,Local Road,1,43.720370,-79.450430,1776942000000,1780606800000,Low,Low,CONSTRUCTION,,ONE_DIRECTION,Toronto Hydro,
Tor-RD1H2026-723-5,Creston Rd,Creston Rd 59 m West of Highland Hill to 24 m West of Highland Hill,NORTH YORK,Local Road,1,43.719570,-79.451050,1776942000000,1780606800000,Low,Low,CONSTRUCTION,,ONE_DIRECTION,Toronto Hydro,
Tor-RD1H2026-723-6,Highland Hill,Highland Hill 39 m South of Creston Rd to 35 m North of Celt Ave,NORTH YORK,Local Road,1,43.719380,-79.450260,1776942000000,1780606800000,Low,Low,CONSTRUCTION,,ONE_DIRECTION,Toronto Hydro,
Tor-RD1H2026-723-1,Highland Hill,Highland Hill 28 m South of Ranee Ave to 43 m North of Sparrow Ave,NORTH YORK,Unknown,1,43.722540,-79.450840,1776942000000,1780606800000,Low,Low,CONSTRUCTION,,ONE_DIRECTION,Toronto Hydro,
Tor-RD1H2026-723-7,Highland Hill,Highland Hill 60 m South of Celt Ave to 56 m North of Dane Ave,NORTH YORK,Local Road,1,43.718210,-79.449970,1776942000000,1780606800000,Low,Low,CONSTRUCTION,,ONE_DIRECTION,Toronto Hydro,
Tor-RD52026-2171-8,Rimrock Rd,Rimrock Rd 8 m West of William R Allen Rd to Lodestar Rd,NORTH YORK,Local Road,1,43.757740,-79.465110,1779706800000,1793577600000,Low,Low,CONSTRUCTION,,ONE_DIRECTION,"{tabledata"":[{""Option"":""Toronto Water""""",
Tor-RD52026-1541,Hounslow Heath Rd,Hounslow Heath Rd 16 m South of Silverthorn Ave to 12 m West of Laughton Ave,TORONTO,Local Road,1,43.674070,-79.459920,1777892400000,1782514800000,Low,Low,CONSTRUCTION,,BOTH_DIRECTIONS,"{tabledata"":[{""Option"":""Transportation Services""""",
Tor-RD1H2026-933-7,Ecker Dr,Ecker Dr 14 m East of Gair Dr to 22 m West of Coules Crt,ETOBICOKE,Local Road,1,43.607140,-79.550770,1779966000000,1788210000000,Low,Low,CONSTRUCTION,,ONE_DIRECTION,Toronto Hydro,
Tor-RD1H2026-933-6,Brown's Line,Brown's Line 49 m South of Coules Crt to 19 m North of Coules Crt,ETOBICOKE,Major Arterial Road,1,43.607890,-79.547900,1779966000000,1788210000000,High,High,CONSTRUCTION,,BOTH_DIRECTIONS,Toronto Hydro,
Tor-RD1H2026-921-3,Kilbarry Pl,Kilbarry Pl 20 m South of end of road to 11 m North of Kilbarry Rd,TORONTO,Local Road,1,43.694120,-79.410040,1779102000000,1784318400000,Low,Low,CONSTRUCTION,,ONE_DIRECTION,Toronto Hydro,
Tor-RD1H2026-921-6,Kilbarry Rd,Kilbarry Rd 23 m East of Russell Hill Rd to 36 m West of Kilbarry Pl,TORONTO,Local Road,1,43.693560,-79.410910,1779102000000,1784318400000,Low,Low,ROAD_CLOSED,ROAD_CLOSED_CONSTRUCTION,BOTH_DIRECTIONS,Toronto Hydro,
Tor-RD1H2026-921-4,Kilbarry Rd,Kilbarry Rd 69 m West of Dunloe Rd to 20 m West of Dunloe Rd,TORONTO,Local Road,1,43.693040,-79.413410,1779102000000,1784318400000,Low,Low,ROAD_CLOSED,ROAD_CLOSED_CONSTRUCTION,BOTH_DIRECTIONS,Toronto Hydro,
Tor-RD1H2026-921-5,Kilbarry Rd,Kilbarry Rd 35 m East of Dunloe Rd to 32 m West of Russell Hill Rd,TORONTO,Local Road,1,43.693300,-79.412160,1779102000000,1784318400000,Low,Low,ROAD_CLOSED,ROAD_CLOSED_CONSTRUCTION,BOTH_DIRECTIONS,Toronto Hydro,
Tor-RD042026-696,Eglinton Ave E,Eglinton Ave E 7 m East of Bermondsey Rd to 57 m East of Bermondsey Rd,NORTH YORK,Major Arterial Road,1,43.726010,-79.313430,1779793200000,1781650800000,High,High,CONSTRUCTION,,ONE_DIRECTION,Utility,
Tor-RD1S2026-371,St Clair Ave W,St Clair Ave W 16 m East of Atlas Ave to 17 m West of Atlas Ave,TORONTO,Major Arterial Road,1,43.680700,-79.430530,1775041200000,1787785200000,High,High,CONSTRUCTION,,ONE_DIRECTION,Pumping of concrete and concrete mixer,
Tor-RD1H2026-933-13,Ecker Dr,Ecker Dr 11 m West of Hargrove Lane to 24 m East of Savona Dr,ETOBICOKE,Local Road,1,43.606800,-79.552260,1779966000000,1788210000000,Low,Low,CONSTRUCTION,,ONE_DIRECTION,Toronto Hydro,
Tor-RD52026-874-17,Goodwill Ave,Goodwill Ave 29 m Northeast of Wilson Heights Blvd to Wilson Heights Blvd,NORTH YORK,Local Road,1,43.736510,-79.448890,1775559600000,1797631200000,Low,Low,CONSTRUCTION,,ONE_DIRECTION,"{tabledata"":[{""Option"":""Toronto Water""""",
Tor-RD52026-874-18,Wilson Heights Blvd,Wilson Heights Blvd from Goodwill Ave to Ansford Ave,NORTH YORK,Minor Arterial Road,1,43.736400,-79.449220,1775559600000,1797631200000,Low,Low,CONSTRUCTION,,ONE_DIRECTION,"{tabledata"":[{""Option"":""Toronto Water""""",
Tor-RD52026-874-19,Ansford Ave,Ansford Ave at Wilson Heights Blvd to 20 m East of Wilson Heights Blvd,NORTH YORK,Local Road,1,43.735590,-79.447760,1775559600000,1797631200000,Low,Low,CONSTRUCTION,,ONE_DIRECTION,"{tabledata"":[{""Option"":""Toronto Water""""",
Tor-RD52026-2171-6,Rimrock Rd,Rimrock Rd at Whitehorse Rd to 7 m East of Whitehorse Rd,NORTH YORK,Local Road,1,43.756340,-79.471290,1779706800000,1793577600000,Low,Low,CONSTRUCTION,,ONE_DIRECTION,"{tabledata"":[{""Option"":""Toronto Water""""",
Tor-RD52026-2171-5,Whitehorse Rd,Whitehorse Rd 3 m Southeast of Rimrock Rd to Rimrock Rd,NORTH YORK,Local Road,1,43.756310,-79.471280,1779706800000,1793577600000,Low,Low,CONSTRUCTION,,ONE_DIRECTION,"{tabledata"":[{""Option"":""Toronto Water""""",
Tor-RD52026-2171-10,Lodestar Rd,Lodestar Rd 11 m North of Rimrock Rd to 29 m South of end of road,NORTH YORK,Local Road,1,43.757600,-79.466180,1779706800000,1793577600000,Low,Low,CONSTRUCTION,,ONE_DIRECTION,"{tabledata"":[{""Option"":""Toronto Water""""",
Tor-RD52026-2171-9,Lodestar Rd,Lodestar Rd at Rimrock Rd to 11 m North of Rimrock Rd,NORTH YORK,Local Road,1,43.757500,-79.466140,1779706800000,1793577600000,Low,Low,CONSTRUCTION,,ONE_DIRECTION,"{tabledata"":[{""Option"":""Toronto Water""""",
Tor-RD042026-342-5,Riverdale Ave,Riverdale Ave at Pape Ave to 66 m West of Pape Ave,TORONTO,Minor Arterial Road,1,43.671270,-79.341720,1774868400000,1785445200000,Low,Low,CONSTRUCTION,,ONE_DIRECTION,Metrolinx,
Tor-RD042026-342-6,Pape Ave,Pape Ave 7 m North of end of road to 15 m South of Riverdale Ave,TORONTO,Unknown,1,43.669760,-79.341100,1774868400000,1785445200000,Low,Low,ROAD_CLOSED,ROAD_CLOSED_CONSTRUCTION,BOTH_DIRECTIONS,Metrolinx,
Tor-RD042026-586-3,Don Mills Rd,Don Mills Rd 91 m South of West Don River Trl to 104 m North of West Don River Trl,EAST YORK,Major Arterial Road,1,43.707770,-79.333730,1779188400000,1781640000000,High,High,CONSTRUCTION,,ONE_DIRECTION,Utility,
Tor-RD062025-977,Peter St,Peter St at King St W to 3 m South of Queen St W,TORONTO,Local Road,1,43.646040,-79.392300,1774263600000,1780182000000,Low,Low,ROAD_CLOSED,ROAD_CLOSED_CONSTRUCTION,BOTH_DIRECTIONS,"Road Resurfacing, Critical Interim Road Repairs",
Tor-RD052026-197-1,Danforth Ave,Danforth Ave 2 m East of Main St to 24 m East of Main St,TORONTO,Major Arterial Road,1,43.688150,-79.301800,1771329600000,1780700400000,High,High,CONSTRUCTION,,ONE_DIRECTION,Toronto Water,
Tor-RD1H2026-921-7,Kilbarry Rd,Kilbarry Rd 51 m West of Avenue Rd to 20 m East of Forest Hill Rd,TORONTO,Local Road,1,43.694900,-79.405250,1779102000000,1784318400000,Low,Low,CONSTRUCTION,,ONE_DIRECTION,Toronto Hydro,
Tor-RD52026-2099,Sixth St,Sixth St 8 m North of Lake Shore Dr to 8 m South of Lake Shore Blvd W,ETOBICOKE,Local Road,1,43.595400,-79.501830,1779274800000,1782860400000,Low,Low,ROAD_CLOSED,ROAD_CLOSED_CONSTRUCTION,BOTH_DIRECTIONS,"{tabledata"":[{""Option"":""Transportation Services""""",
Tor-RD052025-1044-1,Queen St W,Queen St W 10 m East of Sorauren Ave to 14 m East of Sorauren Ave,TORONTO,Major Arterial Road,1,43.639760,-79.440810,1776078000000,1783717200000,High,High,CONSTRUCTION,,ONE_DIRECTION,Transportation Services,
Tor-RD52026-2316-4,Wallis Cres,Wallis Cres 64 m South of Haimer Ave to 137 m Southwest of Haimer Ave,ETOBICOKE,Local Road,1,43.754250,-79.591520,1779879600000,1782860400000,Low,Low,CONSTRUCTION,,ONE_DIRECTION,"{tabledata"":[{""Option"":""Transportation Services""""",
Tor-RD52026-2316-5,Willie Crt,Willie Crt 9 m East of Kay Dr to 54 m East of Kay Dr,ETOBICOKE,Local Road,1,43.757190,-79.590260,1779879600000,1782860400000,Low,Low,CONSTRUCTION,,ONE_DIRECTION,"{tabledata"":[{""Option"":""Transportation Services""""",
Tor-RD52026-2316-3,Teresa Crt,Teresa Crt 2 m East of Kay Dr to 4 m West of end of road,ETOBICOKE,Local Road,1,43.757230,-79.592300,1779879600000,1782860400000,Low,Low,ROAD_CLOSED,ROAD_CLOSED_CONSTRUCTION,BOTH_DIRECTIONS,"{tabledata"":[{""Option"":""Transportation Services""""",
Tor-RD1H2026-933-3,Coules Crt,Coules Crt 44 m North of Ecker Dr to 17 m North of Ecker Dr,ETOBICOKE,Local Road,1,43.607740,-79.549950,1779966000000,1788210000000,Low,Low,CONSTRUCTION,,ONE_DIRECTION,Toronto Hydro,
Tor-RD52026-2171-7,Rimrock Rd,Rimrock Rd 7 m East of Whitehorse Rd to 8 m West of William R Allen Rd,NORTH YORK,Local Road,1,43.756360,-79.471210,1779706800000,1793577600000,Low,Low,CONSTRUCTION,,ONE_DIRECTION,"{tabledata"":[{""Option"":""Toronto Water""""",
Tor-RD022026-97-1,Sheppard Ave W,Sheppard Ave W at Gorman Park Rd to 61 m East of Blairville Rd,NORTH YORK,Major Arterial Road,1,43.753450,-79.448400,1779966000000,1782505800000,High,High,CONSTRUCTION,,ONE_DIRECTION,Long term construction staging,
Tor-RD042026-342-1,Bain Ave,Bain Ave 18 m East of Pape Ave to Pape Ave,TORONTO,Local Road,1,43.672990,-79.342200,1774868400000,1785445200000,Low,Low,CONSTRUCTION,,ONE_DIRECTION,Metrolinx,
Tor-RD1H2026-933-2,Coules Crt,Coules Crt 71 m North of Ecker Dr to 43 m North of Ecker Dr,ETOBICOKE,Local Road,1,43.607970,-79.549560,1779966000000,1788210000000,Low,Low,CONSTRUCTION,,BOTH_DIRECTIONS,Toronto Hydro,
Tor-RD1H2026-933-8,Gair Dr,Gair Dr 12 m North of Ecker Dr to 9 m South of Ecker Dr,ETOBICOKE,Local Road,1,43.607200,-79.550980,1779966000000,1788210000000,Low,Low,CONSTRUCTION,,BOTH_DIRECTIONS,Toronto Hydro,
Tor-RD1H2026-933-9,Ecker Dr,Ecker Dr 14 m East of Gair Dr to 8 m West of Gair Dr,ETOBICOKE,Local Road,1,43.607140,-79.550770,1779966000000,1788210000000,Low,Low,CONSTRUCTION,,BOTH_DIRECTIONS,Toronto Hydro,
Tor-RD52026-858-1,Runnymede Rd,Runnymede Rd 33 m North of St Clair Ave W to 6 m South of Liverpool St,YORK and TORONTO,Local Road,1,43.669260,-79.483670,1777633200000,1782507600000,Low,Low,CONSTRUCTION,,ONE_DIRECTION,"{tabledata"":[{""Option"":""Transportation Services""""",
Tor-RD042026-342-2,Pape Ave,Pape Ave at Bain Ave to 16 m North of Bain Ave,TORONTO,Minor Arterial Road,1,43.672940,-79.342410,1774868400000,1785445200000,Low,Low,CONSTRUCTION,,ONE_DIRECTION,Metrolinx,
Tor-RD1H2026-451-3,Warden Ave,Warden Ave 34 m North of Ln N Danforth W Warden to 69 m South of Butterworth Ave,SCARBOROUGH,Minor Arterial Road,1,43.695280,-79.274040,1779793200000,1782082800000,Low,Low,CONSTRUCTION,,ONE_DIRECTION,Toronto Hydro,
Tor-RD012026-135-2,Hollyberry Trl,Hollyberry Trl 11 m South of Cliffwood Rd to 94 m East of Freshmeadow Dr,NORTH YORK,Local Road,1,43.808110,-79.352880,1770638400000,1782860400000,Low,Low,ROAD_CLOSED,ROAD_CLOSED_CONSTRUCTION,BOTH_DIRECTIONS,Water Service,
Tor-RD1H2026-739-14,Westhead Rd,Westhead Rd 13 m North of Highbury Dr to 4 m South of Highbury Dr,ETOBICOKE,Local Road,1,43.602700,-79.554300,1777287600000,1787864400000,Low,Low,CONSTRUCTION,,ONE_DIRECTION,Toronto Hydro,
Tor-RD1H2026-739-12,Dunning Cres,Dunning Cres 20 m West of Westhead Rd to 6 m West of Westhead Rd,ETOBICOKE,Local Road,1,43.603190,-79.554800,1777287600000,1787864400000,Low,Low,CONSTRUCTION,,ONE_DIRECTION,Toronto Hydro,
Tor-RD1H2026-739-20,Dunning Cres,Dunning Cres 46 m West of Westhead Rd to 88 m Southwest of Westhead Rd,ETOBICOKE,Local Road,1,43.601700,-79.554490,1777287600000,1787864400000,Low,Low,CONSTRUCTION,,ONE_DIRECTION,Toronto Hydro,
Tor-RD52026-650-1,Maple Leaf Dr,Maple Leaf Dr 72 m West of Black Creek to 10 m East of Jane St,NORTH YORK,Local Road,1,43.709490,-79.504100,1776078000000,1782687600000,Low,Low,ROAD_CLOSED,ROAD_CLOSED_CONSTRUCTION,BOTH_DIRECTIONS,"{tabledata"":[{""Option"":""Toronto Water""""",
Tor-RD1M2026-06-4,Leslie St,Leslie St 25 m Northwest of Leslie N 401 C W Ramp to 118 m North of Lesmill Rd,NORTH YORK,Major Arterial Road,1,43.766780,-79.363270,1774263600000,1790632800000,High,High,CONSTRUCTION,,ONE_DIRECTION,Other,
Tor-RD1M2026-06-3,Leslie St,Leslie St 36 m Northwest of Oriole Go Station to 45 m Southeast of Leslie S 401 C E Ramp,NORTH YORK,Major Arterial Road,1,43.767520,-79.363870,1774263600000,1790632800000,High,High,CONSTRUCTION,,ONE_DIRECTION,Other,
Tor-RD52026-2152,Kane Ave,Kane Ave 6 m Northeast of Lavender Rd to 2 m South of Rogers Rd,YORK,Local Road,1,43.680620,-79.466360,1779361200000,1785538800000,Low,Low,ROAD_CLOSED,ROAD_CLOSED_CONSTRUCTION,ONE_DIRECTION,"{tabledata"":[{""Option"":""Transportation Services""""",
Tor-RD1H2026-933-14,Ecker Dr,Ecker Dr 24 m East of Savona Dr to 2 m East of Savona Dr,ETOBICOKE,Local Road,1,43.606630,-79.553030,1779966000000,1788210000000,Low,Low,CONSTRUCTION,,BOTH_DIRECTIONS,Toronto Hydro,
Tor-RD52026-874-10,Faith Ave,Faith Ave 10 m East of Wilson Heights Blvd to Wilson Heights Blvd,NORTH YORK,Local Road,1,43.738430,-79.450680,1775559600000,1797631200000,Low,Low,CONSTRUCTION,,ONE_DIRECTION,"{tabledata"":[{""Option"":""Toronto Water""""",
Tor-RD52026-874-11,Wilson Heights Blvd,Wilson Heights Blvd from Faith Ave to Model Ave,NORTH YORK,Minor Arterial Road,1,43.738400,-79.450800,1775559600000,1797631200000,Low,Low,CONSTRUCTION,,ONE_DIRECTION,"{tabledata"":[{""Option"":""Toronto Water""""",
Tor-RD52026-874-12,Model Ave,Model Ave at Wilson Heights Blvd to 13 m West of Faywood Blvd,NORTH YORK,Local Road,1,43.737360,-79.450400,1775559600000,1797631200000,Low,Low,CONSTRUCTION,,ONE_DIRECTION,"{tabledata"":[{""Option"":""Toronto Water""""",
Tor-RD52026-874-9,Faith Ave,Faith Ave at Faywood Blvd to 10 m East of Wilson Heights Blvd,NORTH YORK,Local Road,1,43.739130,-79.447430,1775559600000,1797631200000,Low,Low,CONSTRUCTION,,ONE_DIRECTION,"{tabledata"":[{""Option"":""Toronto Water""""",
Tor-RD062026-56,Courtwright Rd,Courtwright Rd 4 m East of Rangoon Rd to 6 m East of Hartland Rd,ETOBICOKE,Local Road,1,43.668420,-79.580190,1770206400000,1783371600000,Low,Low,ROAD_CLOSED,ROAD_CLOSED_CONSTRUCTION,BOTH_DIRECTIONS,"Road Resurfacing, Road Recontruction, Sidewalk Construction",
Tor-RD062026-57,Rangoon Rd,Rangoon Rd 101 m Northwest of Wellesworth Dr to Courtwright Rd,ETOBICOKE,Local Road,1,43.667160,-79.579450,1770724800000,1783371600000,Low,Low,ROAD_CLOSED,ROAD_CLOSED_CONSTRUCTION,BOTH_DIRECTIONS,"Road Resurfacing, Road Recontruction, Sidewalk Construction",
Tor-RD062026-59,Gentian Dr,Gentian Dr at Wellesworth Dr to 20 m East of Renforth Dr,ETOBICOKE,Local Road,1,43.665230,-79.581550,1774436400000,1790370000000,Low,Low,ROAD_CLOSED,ROAD_CLOSED_CONSTRUCTION,BOTH_DIRECTIONS,"Road Resurfacing, Road Recontruction, Sidewalk Construction",
Tor-RD52026-1193,Park Ave,Park Ave 17 m West of Willow Ave to 28 m West of Willow Ave,TORONTO,Local Road,1,43.670990,-79.285820,1780138800000,1781478000000,Low,Low,CONSTRUCTION,,ONE_DIRECTION,"{tabledata"":[{""Option"":""Toronto Water""""",
Tor-RD52026-1849-7,Frimette Cres,Frimette Cres at Cynthia Rd to 8 m North of Cynthia Rd,YORK,Local Road,1,43.677680,-79.505010,1778238000000,1793577600000,Low,Low,CONSTRUCTION,,ONE_DIRECTION,"{tabledata"":[{""Option"":""Toronto Water""""",
Tor-RD52026-1849-8,Frimette Cres,Frimette Cres 8 m North of Cynthia Rd to Cynthia Rd,YORK,Local Road,1,43.677750,-79.505020,1778238000000,1793577600000,Low,Low,CONSTRUCTION,,ONE_DIRECTION,"{tabledata"":[{""Option"":""Toronto Water""""",
Tor-RD52026-1849-9,Cynthia Rd,Cynthia Rd from Frimette Cres to Scarlett Rd,YORK,Local Road,1,43.677680,-79.505010,1778238000000,1793577600000,Low,Low,CONSTRUCTION,,ONE_DIRECTION,"{tabledata"":[{""Option"":""Toronto Water""""",
Tor-RD52026-1849-10,Scarlett Rd,Scarlett Rd from Cynthia Rd to East Dr,YORK,Minor Arterial Road,1,43.677460,-79.506360,1778238000000,1793577600000,Low,Low,CONSTRUCTION,,ONE_DIRECTION,"{tabledata"":[{""Option"":""Toronto Water""""",
Tor-RD52026-1220-2,Kennedy Rd,Kennedy Rd 245 m North of Brenda Cres to 145 m North of Brenda Cres,SCARBOROUGH,Major Arterial Road,1,43.719600,-79.262560,1778670000000,1782860400000,High,High,CONSTRUCTION,,ONE_DIRECTION,"{tabledata"":[{""Option"":""Other""""",
Tor-RD52026-650-3,Maple Leaf Dr,Maple Leaf Dr 21 m West of Highway 400 S to 38 m West of Black Creek,NORTH YORK,Local Road,1,43.709940,-79.501780,1776078000000,1782687600000,Low,Low,ROAD_CLOSED,ROAD_CLOSED_CONSTRUCTION,BOTH_DIRECTIONS,"{tabledata"":[{""Option"":""Toronto Water""""",
Tor-RD52026-650-4,Maple Leaf Dr,Maple Leaf Dr 22 m West of Highway 400 S to 39 m West of Black Creek,NORTH YORK,Local Road,1,43.709940,-79.501790,1776078000000,1782687600000,Low,Low,ROAD_CLOSED,ROAD_CLOSED_CONSTRUCTION,BOTH_DIRECTIONS,"{tabledata"":[{""Option"":""Toronto Water""""",
Tor-RD52026-650-2,Maple Leaf Dr,Maple Leaf Dr 83 m West of Black Creek to 10 m East of Jane St,NORTH YORK,Local Road,1,43.709470,-79.504230,1776078000000,1782687600000,Low,Low,CONSTRUCTION,,ONE_DIRECTION,"{tabledata"":[{""Option"":""Toronto Water""""",
Tor-RD1H2026-739-16,Westhead Rd,Westhead Rd 3 m South of Highbury Dr to 15 m North of Dunning Cres,ETOBICOKE,Local Road,1,43.602560,-79.554240,1777287600000,1787864400000,Low,Low,CONSTRUCTION,,ONE_DIRECTION,Toronto Hydro,
Tor-RD1H2026-739-15,Highbury Dr,Highbury Dr 7 m East of Westhead Rd to 19 m East of Westhead Rd,ETOBICOKE,Local Road,1,43.602600,-79.554170,1777287600000,1787864400000,Low,Low,CONSTRUCTION,,ONE_DIRECTION,Toronto Hydro,
Tor-RD1H2026-739-17,Westhead Rd,Westhead Rd 10 m Southeast of Dunning Cres to 9 m North of Dunning Cres,ETOBICOKE,Local Road,1,43.601720,-79.553880,1777287600000,1787864400000,Low,Low,CONSTRUCTION,,ONE_DIRECTION,Toronto Hydro,
Tor-RD1H2026-739-18,Dunning Cres,Dunning Cres 2 m West of Westhead Rd to 12 m West of Westhead Rd,ETOBICOKE,Local Road,1,43.601800,-79.553950,1777287600000,1787864400000,Low,Low,CONSTRUCTION,,ONE_DIRECTION,Toronto Hydro,
Tor-RD1M2026-06-5,Leslie St,Leslie St 127 m South of Leslie S 401 C E Ramp to 34 m Northwest of Oriole Go Station,NORTH YORK,Unknown,1,43.764890,-79.362020,1774263600000,1790632800000,Low,Low,CONSTRUCTION,,ONE_DIRECTION,Other,
Tor-RD52026-1849-5,Frimette Cres,Frimette Cres 5 m West of Cynthia Rd to Cynthia Rd,YORK,Local Road,1,43.679330,-79.503570,1778238000000,1793577600000,Low,Low,CONSTRUCTION,,ONE_DIRECTION,"{tabledata"":[{""Option"":""Toronto Water""""",
Tor-RD52026-1849-4,Frimette Cres,Frimette Cres at Cynthia Rd to 5 m West of Cynthia Rd,YORK,Local Road,1,43.679340,-79.503510,1778238000000,1793577600000,Low,Low,CONSTRUCTION,,ONE_DIRECTION,"{tabledata"":[{""Option"":""Toronto Water""""",
Tor-RD52026-871-2,Manstor Rd,Manstor Rd 17 m West of Boncer Dr to North Queen St,ETOBICOKE,Local Road,1,43.617680,-79.561700,1775559600000,1781305200000,Low,Low,CONSTRUCTION,,ONE_DIRECTION,"{tabledata"":[{""Option"":""Toronto Water""""",
Tor-RD52026-871-3,North Queen St,North Queen St at Manstor Rd to 3 m North of Manstor Rd,ETOBICOKE,Minor Arterial Road,1,43.618220,-79.557670,1775559600000,1781305200000,Low,Low,CONSTRUCTION,,ONE_DIRECTION,"{tabledata"":[{""Option"":""Toronto Water""""",
Tor-RD52026-871-4,North Queen St,North Queen St 3 m North of Manstor Rd to 115 m East of Hepc,ETOBICOKE,Minor Arterial Road,1,43.618240,-79.557660,1775559600000,1781305200000,Low,Low,CONSTRUCTION,,ONE_DIRECTION,"{tabledata"":[{""Option"":""Toronto Water""""",
Tor-RD52026-871-5,North Queen St,North Queen St 115 m East of Hepc to 114 m East of Hepc,ETOBICOKE,Minor Arterial Road,1,43.619130,-79.555300,1775559600000,1781305200000,Low,Low,CONSTRUCTION,,ONE_DIRECTION,"{tabledata"":[{""Option"":""Toronto Water""""",
Tor-RD52026-871-6,North Queen St,North Queen St 114 m East of Hepc to 114 m East of Hepc,ETOBICOKE,Minor Arterial Road,1,43.619130,-79.555310,1775559600000,1781305200000,Low,Low,CONSTRUCTION,,ONE_DIRECTION,"{tabledata"":[{""Option"":""Toronto Water""""",
Tor-RD052025-303-4,Linden Ave,Linden Ave 134 m South of Corvette Ave to 171 m South of Corvette Ave,SCARBOROUGH,Local Road,1,43.725360,-79.259020,1761217200000,1790809200000,Low,Low,ROAD_CLOSED,ROAD_CLOSED_CONSTRUCTION,BOTH_DIRECTIONS,"Toronto Water, Other",
Tor-RD062025-2361,Beckwith Rd,Beckwith Rd 6 m North of Ln S Eringate W Odessa to 110 m West of Sigmont Rd,ETOBICOKE,Local Road,1,43.660740,-79.575130,1774436400000,1790370000000,Low,Low,ROAD_CLOSED,ROAD_CLOSED_CONSTRUCTION,BOTH_DIRECTIONS,"Road Resurfacing, Road Recontruction, Sidewalk Construction",
Tor-RD052025-303-5,Linden Ave,Linden Ave 134 m South of Corvette Ave to 173 m South of Corvette Ave,SCARBOROUGH,Local Road,1,43.725360,-79.259020,1763899200000,1790809200000,Low,Low,ROAD_CLOSED,ROAD_CLOSED_CONSTRUCTION,BOTH_DIRECTIONS,"Toronto Water, Other",
Tor-RD012026-135-3,Hollyberry Trl,Hollyberry Trl 122 m West of Ebonywood Gt to 94 m East of Freshmeadow Dr,NORTH YORK,Local Road,1,43.811190,-79.353560,1770638400000,1782860400000,Low,Low,ROAD_CLOSED,ROAD_CLOSED_CONSTRUCTION,BOTH_DIRECTIONS,Water Service,
Tor-RD52026-871-7,North Queen St,North Queen St 114 m East of Hepc to 109 m East of Hepc,ETOBICOKE,Minor Arterial Road,1,43.619130,-79.555300,1775559600000,1781305200000,Low,Low,CONSTRUCTION,,ONE_DIRECTION,"{tabledata"":[{""Option"":""Toronto Water""""",
Tor-RD52026-759-2,Oriole Pkwy,Oriole Pkwy 3 m South of College View Ave to 3 m North of Tranmer Ave,TORONTO,Minor Arterial Road,1,43.702310,-79.405040,1776078000000,1782860400000,Low,Low,ROAD_CLOSED,ROAD_CLOSED_CONSTRUCTION,BOTH_DIRECTIONS,"{tabledata"":[{""Option"":""Transportation Services""""",
Tor-RD52026-759-1,Oriole Pkwy,Oriole Pkwy at Anderson Ave to 11 m North of College View Ave,TORONTO,Minor Arterial Road,1,43.703240,-79.405390,1776078000000,1782860400000,Low,Low,ROAD_CLOSED,ROAD_CLOSED_CONSTRUCTION,BOTH_DIRECTIONS,"{tabledata"":[{""Option"":""Transportation Services""""",
Tor-RD52026-90-1,Lorraine Gdns,Lorraine Gdns 214 m East of Appleby Rd to 11 m East of Martin Grove Rd,ETOBICOKE,Local Road,1,43.651620,-79.546080,1774436400000,1790375400000,Low,Low,ROAD_CLOSED,ROAD_CLOSED_CONSTRUCTION,BOTH_DIRECTIONS,"{tabledata"":[{""Option"":""Transportation Services""""",
Tor-RD52026-90-2,Appleby Crt,Appleby Crt at end of road to 9 m North of Lorraine Gdns,ETOBICOKE,Local Road,1,43.654450,-79.550090,1774436400000,1790375400000,Low,Low,ROAD_CLOSED,ROAD_CLOSED_CONSTRUCTION,BOTH_DIRECTIONS,"{tabledata"":[{""Option"":""Transportation Services""""",
Tor-RD1H2026-595-3,Burrows Hall Blvd,Burrows Hall Blvd 13 m West of Tinbury Pl to 24 m East of Lapsley Rd,SCARBOROUGH,Local Road,1,43.794790,-79.225470,1775127600000,1781823600000,Low,Low,CONSTRUCTION,,ONE_DIRECTION,Toronto Hydro,
Tor-RD1H2026-595-4,Lapsley Rd,Lapsley Rd 92 m Southeast of Sheppard Ave E to 96 m Northwest of Burrows Hall Blvd,SCARBOROUGH,Local Road,1,43.795450,-79.226940,1775127600000,1781823600000,Low,Low,CONSTRUCTION,,ONE_DIRECTION,Toronto Hydro,
Tor-RD1H2026-595-5,Lapsley Rd,Lapsley Rd 39 m Northwest of Burrows Hall Blvd to 20 m North of Burrows Hall Blvd,SCARBOROUGH,Local Road,1,43.794970,-79.226180,1775127600000,1781823600000,Low,Low,CONSTRUCTION,,ONE_DIRECTION,Toronto Hydro,
Tor-RD1M2026-06-1,Leslie St,Leslie St 124 m South of Leslie S 401 C E Ramp to 39 m Northwest of Leslie N 401 C W Ramp,NORTH YORK,Major Arterial Road,1,43.764910,-79.362030,1774263600000,1790632800000,High,High,CONSTRUCTION,,ONE_DIRECTION,Other,
Tor-RD1M2026-06-6,Leslie St,Leslie St 123 m South of Leslie S 401 C E Ramp to 37 m Northwest of Oriole Go Station,NORTH YORK,Unknown,1,43.764920,-79.362040,1774263600000,1790632800000,Low,Low,CONSTRUCTION,,ONE_DIRECTION,Other,
Tor-RD1H2026-595-6,Sheppard Ave E,Sheppard Ave E 63 m East of Lapsley Rd to 80 m East of Lapsley Rd,SCARBOROUGH,Major Arterial Road,1,43.796300,-79.226790,1775127600000,1781823600000,High,High,CONSTRUCTION,,ONE_DIRECTION,Toronto Hydro,
Tor-RD52026-648-1,Ontario St,Ontario St 4 m South of Aberdeen Ave to 10 m Northwest of Carlton St,TORONTO,Local Road,1,43.664480,-79.370880,1775127600000,1782860400000,Low,Low,ROAD_CLOSED,ROAD_CLOSED_CONSTRUCTION,ONE_DIRECTION,"{tabledata"":[{""Option"":""Toronto Water""""",
Tor-RD52026-648-2,Ontario St,Ontario St 2 m North of Aberdeen Ave to Winchester St,TORONTO,Local Road,1,43.664530,-79.370900,1775127600000,1782860400000,Low,Low,ROAD_CLOSED,ROAD_CLOSED_CONSTRUCTION,ONE_DIRECTION,"{tabledata"":[{""Option"":""Toronto Water""""",
Tor-RD52026-648-3,Winchester St,Winchester St at Ontario St to 18 m East of Ontario St,TORONTO,Local Road,1,43.665310,-79.371220,1775127600000,1782860400000,Low,Low,ROAD_CLOSED,ROAD_CLOSED_CONSTRUCTION,ONE_DIRECTION,"{tabledata"":[{""Option"":""Toronto Water""""",
Tor-RD1S2026-673,Loretto Lane,Loretto Lane 5 m North of Lennox St to 2 m South of Bloor St W,TORONTO,Unknown,1,43.664000,-79.410090,1780138800000,1780218000000,Low,None,ROAD_CLOSED,ROAD_CLOSED_CONSTRUCTION,BOTH_DIRECTIONS,Hoisting with mobile crane or boom truck,
Tor-RD52026-930-4-1,Shuter St,Shuter St 7 m East of George St to George St,TORONTO,Minor Arterial Road,1,43.655630,-79.372670,1775905200000,1780268400000,Low,Low,CONSTRUCTION,,ONE_DIRECTION,"{tabledata"":[{""Option"":""Transportation Services""""",
Tor-RD52026-930-4-2,George St,George St at Shuter St to 9 m North of Shuter St,TORONTO,Local Road,1,43.655610,-79.372760,1775905200000,1780268400000,Low,Low,CONSTRUCTION,,ONE_DIRECTION,"{tabledata"":[{""Option"":""Transportation Services""""",
Tor-RD52026-930-3,George St,George St at Shuter St to 9 m South of Dundas St E,TORONTO,Local Road,1,43.655610,-79.372760,1777892400000,1780268400000,Low,Low,CONSTRUCTION,,ONE_DIRECTION,"{tabledata"":[{""Option"":""Transportation Services""""",
Tor-RD52026-2069-1,Kennedy Rd,Kennedy Rd 4 m North of Foxridge Dr to 41 m South of Foxridge Dr,SCARBOROUGH,Major Arterial Road,1,43.724140,-79.264520,1779361200000,1781305200000,High,High,CONSTRUCTION,,ONE_DIRECTION,"{tabledata"":[{""Option"":""Other""""",
Tor-RD52026-2069-2,Kennedy Rd,Kennedy Rd 5 m North of Foxridge Dr to 40 m South of Foxridge Dr,SCARBOROUGH,Major Arterial Road,1,43.724150,-79.264520,1779361200000,1781305200000,High,High,CONSTRUCTION,,ONE_DIRECTION,"{tabledata"":[{""Option"":""Other""""",
Tor-RD52026-874-1,Dresden Rd,Dresden Rd at Faywood Blvd to 3 m West of Faywood Blvd,NORTH YORK,Local Road,1,43.741330,-79.447990,1775559600000,1797631200000,Low,Low,CONSTRUCTION,,ONE_DIRECTION,"{tabledata"":[{""Option"":""Toronto Water""""",
Tor-RD52026-874-2,Dresden Rd,Dresden Rd 3 m West of Faywood Blvd to 5 m East of Wilson Heights Blvd,NORTH YORK,Local Road,1,43.741320,-79.448020,1775559600000,1797631200000,Low,Low,CONSTRUCTION,,ONE_DIRECTION,"{tabledata"":[{""Option"":""Toronto Water""""",
Tor-RD52026-874-3,Dresden Rd,Dresden Rd 5 m East of Wilson Heights Blvd to Wilson Heights Blvd,NORTH YORK,Local Road,1,43.740570,-79.451510,1775559600000,1797631200000,Low,Low,CONSTRUCTION,,ONE_DIRECTION,"{tabledata"":[{""Option"":""Toronto Water""""",
Tor-RD52026-874-4,Wilson Heights Blvd,Wilson Heights Blvd from Dresden Rd to Sunbeam Ave,NORTH YORK,Minor Arterial Road,1,43.740560,-79.451570,1775559600000,1797631200000,Low,Low,CONSTRUCTION,,ONE_DIRECTION,"{tabledata"":[{""Option"":""Toronto Water""""",
Tor-RD52026-870-5,Alanmeade Cres,Alanmeade Cres 146 m North of Harrop Ave to 11 m North of Harrop Ave,ETOBICOKE,Local Road,1,43.655280,-79.559050,1776164400000,1794607200000,Low,Low,CONSTRUCTION,,ONE_DIRECTION,"{tabledata"":[{""Option"":""Toronto Water""""",
Tor-RD52026-874-5,Sunbeam Ave,Sunbeam Ave at Wilson Heights Blvd to 10 m East of Wilson Heights Blvd,NORTH YORK,Local Road,1,43.739490,-79.451190,1775559600000,1797631200000,Low,Low,CONSTRUCTION,,ONE_DIRECTION,"{tabledata"":[{""Option"":""Toronto Water""""",
Tor-RD1H2026-985-2,Lothian Ave,Lothian Ave 16 m North of Meadowvale Dr to 23 m South of Meadowvale Dr,ETOBICOKE,Local Road,1,43.643560,-79.520470,1779793200000,1788210000000,Low,Low,CONSTRUCTION,,BOTH_DIRECTIONS,Toronto Hydro,
Tor-RD1H2026-985-3,Lothian Ave,Lothian Ave 21 m South of Meadowvale Dr to 25 m North of Van Dusen Blvd,ETOBICOKE,Local Road,1,43.643240,-79.520340,1779793200000,1788210000000,Low,Low,CONSTRUCTION,,ONE_DIRECTION,Toronto Hydro,
Tor-RD1H2026-985-4,Meadowvale Dr,Meadowvale Dr 18 m West of Lothian Ave to 11 m East of Lothian Ave,ETOBICOKE,Local Road,1,43.643380,-79.520620,1779793200000,1788210000000,Low,Low,CONSTRUCTION,,BOTH_DIRECTIONS,Toronto Hydro,
Tor-RD1H2026-985-5,Meadowvale Dr,Meadowvale Dr 12 m East of Lothian Ave to 11 m West of Eagle Rd,ETOBICOKE,Local Road,1,43.643450,-79.520270,1779793200000,1788210000000,Low,Low,CONSTRUCTION,,ONE_DIRECTION,Toronto Hydro,
Tor-RD1H2026-985-6,Meadowvale Dr,Meadowvale Dr 11 m West of Eagle Rd to 7 m East of Eagle Rd,ETOBICOKE,Local Road,1,43.643640,-79.519440,1779793200000,1788210000000,Low,Low,CONSTRUCTION,,BOTH_DIRECTIONS,Toronto Hydro,
Tor-RD1H2026-985-1,Lothian Ave,Lothian Ave 22 m South of Bloor St W to 17 m North of Meadowvale Dr,ETOBICOKE,Local Road,1,43.645000,-79.521090,1779793200000,1788210000000,Low,Low,CONSTRUCTION,,ONE_DIRECTION,Toronto Hydro,
Tor-RD1H2026-985-7,Eagle Rd,Eagle Rd 11 m North of Meadowvale Dr to 10 m South of Meadowvale Dr,ETOBICOKE,Local Road,1,43.643760,-79.519350,1779793200000,1788210000000,Low,Low,CONSTRUCTION,,BOTH_DIRECTIONS,Toronto Hydro,
Tor-RD52026-1849-13,Brendwin Rd,Brendwin Rd 8 m North of East Dr to end of road,YORK,Unknown,1,43.677470,-79.503470,1778238000000,1793577600000,Low,Low,CONSTRUCTION,,ONE_DIRECTION,"{tabledata"":[{""Option"":""Toronto Water""""",
Tor-RD52026-100-1,Cowley Ave,Cowley Ave 10 m West of Martin Grove Rd to 36 m West of Northglen Ave,ETOBICOKE,Local Road,1,43.653180,-79.551030,1777633200000,1790375400000,Low,Low,ROAD_CLOSED,ROAD_CLOSED_CONSTRUCTION,BOTH_DIRECTIONS,"{tabledata"":[{""Option"":""Transportation Services""""",
Tor-RD52026-100-2,Northglen Ave,Northglen Ave 24 m North of Cowley Ave to 26 m South of Cowley Ave,ETOBICOKE,Local Road,1,43.652800,-79.553670,1777633200000,1790375400000,Low,Low,ROAD_CLOSED,ROAD_CLOSED_CONSTRUCTION,BOTH_DIRECTIONS,"{tabledata"":[{""Option"":""Transportation Services""""",
Tor-RD052025-303-1,Linden Ave,Linden Ave 10 m North of Summer Dr to 75 m South of Summer Dr,SCARBOROUGH,Local Road,1,43.723300,-79.258150,1753095600000,1790809200000,Low,Low,ROAD_CLOSED,ROAD_CLOSED_CONSTRUCTION,BOTH_DIRECTIONS,"Toronto Water, Other",
Tor-RD052025-303-2,Linden Ave,Linden Ave 32 m South of Summer Dr to 76 m South of Summer Dr,SCARBOROUGH,Local Road,1,43.722940,-79.258000,1755774000000,1790809200000,Low,Low,ROAD_CLOSED,ROAD_CLOSED_CONSTRUCTION,BOTH_DIRECTIONS,"Toronto Water, Other",
Tor-RD052025-303-3,Linden Ave,Linden Ave 47 m South of Summer Dr to 90 m South of Summer Dr,SCARBOROUGH,Local Road,1,43.722810,-79.257940,1758452400000,1790809200000,Low,Low,ROAD_CLOSED,ROAD_CLOSED_CONSTRUCTION,BOTH_DIRECTIONS,"Toronto Water, Other",
Tor-RD1M2026-06-2,Leslie St,Leslie St 38 m Northwest of Oriole Go Station to 43 m Southeast of Leslie S 401 C E Ramp,NORTH YORK,Major Arterial Road,1,43.767540,-79.363880,1774263600000,1790632800000,High,High,CONSTRUCTION,,ONE_DIRECTION,Other,
Tor-RD52026-648-5,Ontario St,Ontario St 2 m North of Prospect St to 4 m South of Wellesley St E,TORONTO,Local Road,1,43.666540,-79.371720,1775127600000,1782860400000,Low,Low,ROAD_CLOSED,ROAD_CLOSED_CONSTRUCTION,ONE_DIRECTION,"{tabledata"":[{""Option"":""Toronto Water""""",
Tor-RD52026-663-1,Greenwood Ave,Greenwood Ave 10 m South of Mortimer Ave to 7 m North of Sammon Ave,EAST YORK,Minor Arterial Road,1,43.688570,-79.335460,1774868400000,1785538800000,Low,Low,CONSTRUCTION,,ONE_DIRECTION,"{tabledata"":[{""Option"":""Transportation Services""""",
Tor-RD52026-663-2,Greenwood Ave,Greenwood Ave 12 m South of Mortimer Ave to 7 m North of Sammon Ave,EAST YORK,Minor Arterial Road,1,43.688560,-79.335450,1774868400000,1785538800000,Low,Low,CONSTRUCTION,,ONE_DIRECTION,"{tabledata"":[{""Option"":""Transportation Services""""",
Tor-RD52026-648-4,Ontario St,Ontario St 2 m North of Ww W Rose N Winchester to 2 m South of Prospect St,TORONTO,Local Road,1,43.666070,-79.371540,1775127600000,1782860400000,Low,Low,ROAD_CLOSED,ROAD_CLOSED_CONSTRUCTION,ONE_DIRECTION,"{tabledata"":[{""Option"":""Toronto Water""""",
Tor-RD52026-690-1,Berkeley St,Berkeley St 7 m North of King St E to 6 m South of Adelaide St E,TORONTO,Local Road,1,43.652190,-79.364410,1776078000000,1785538800000,Low,Low,ROAD_CLOSED,ROAD_CLOSED_CONSTRUCTION,BOTH_DIRECTIONS,"{tabledata"":[{""Option"":""Transportation Services""""",
Tor-RD52026-690-2,Berkeley St,Berkeley St 9 m North of Adelaide St E to 11 m South of Richmond St E,TORONTO,Local Road,1,43.653070,-79.364790,1776078000000,1785538800000,Low,Low,ROAD_CLOSED,ROAD_CLOSED_CONSTRUCTION,BOTH_DIRECTIONS,"{tabledata"":[{""Option"":""Transportation Services""""",
Tor-RD52026-690-3,Berkeley St,Berkeley St 11 m South of Richmond St E to 10 m North of Adelaide St E,TORONTO,Local Road,1,43.654170,-79.365260,1776078000000,1785538800000,Low,Low,CONSTRUCTION,,ONE_DIRECTION,"{tabledata"":[{""Option"":""Transportation Services""""",
Tor-RD52026-1771-1,Fernalroy Blvd,Fernalroy Blvd 2 m North of Leland Ave to Leland Ave,ETOBICOKE,Local Road,1,43.639260,-79.515020,1778151600000,1782860400000,Low,Low,CONSTRUCTION,,ONE_DIRECTION,"{tabledata"":[{""Option"":""Transportation Services""""",
Tor-RD52026-1771-2,Leland Ave,Leland Ave from Fernalroy Blvd to Lothian Ave,ETOBICOKE,Local Road,1,43.639250,-79.515020,1778151600000,1782860400000,Low,Low,ROAD_CLOSED,ROAD_CLOSED_CONSTRUCTION,BOTH_DIRECTIONS,"{tabledata"":[{""Option"":""Transportation Services""""",
Tor-RD52026-2113,Douglas Dr,Douglas Dr 11 m East of Astley Ave to 14 m West of end of road,TORONTO,Local Road,1,43.687730,-79.368990,1779188400000,1780700400000,Low,Low,ROAD_CLOSED,ROAD_CLOSED_CONSTRUCTION,BOTH_DIRECTIONS,"{tabledata"":[{""Option"":""Toronto Water""""",
Tor-RD52026-1355,Noranda Dr,Noranda Dr 16 m East of Brookhaven Dr to end of road,NORTH YORK,Local Road,1,43.699940,-79.494130,1776855600000,1782687600000,Low,Low,ROAD_CLOSED,ROAD_CLOSED_CONSTRUCTION,BOTH_DIRECTIONS,"{tabledata"":[{""Option"":""Transportation Services""""",
Tor-RD52026-874-6,Sunbeam Ave,Sunbeam Ave 10 m East of Wilson Heights Blvd to 6 m West of Faywood Blvd,NORTH YORK,Local Road,1,43.739520,-79.451070,1775559600000,1797631200000,Low,Low,CONSTRUCTION,,ONE_DIRECTION,"{tabledata"":[{""Option"":""Toronto Water""""",
Tor-RD52026-874-7,Sunbeam Ave,Sunbeam Ave 6 m West of Faywood Blvd to Faywood Blvd,NORTH YORK,Local Road,1,43.740210,-79.447750,1775559600000,1797631200000,Low,Low,CONSTRUCTION,,ONE_DIRECTION,"{tabledata"":[{""Option"":""Toronto Water""""",
Tor-RD52026-874-8,Faywood Blvd,Faywood Blvd from Sunbeam Ave to Faith Ave,NORTH YORK,Unknown,1,43.740230,-79.447680,1775559600000,1797631200000,Low,Low,CONSTRUCTION,,ONE_DIRECTION,"{tabledata"":[{""Option"":""Toronto Water""""",
Tor-RD1H2026-985-8,Eagle Rd,Eagle Rd 13 m South of Meadowvale Dr to 17 m North of Van Dusen Blvd,ETOBICOKE,Local Road,1,43.643560,-79.519270,1779793200000,1788210000000,Low,Low,CONSTRUCTION,,ONE_DIRECTION,Toronto Hydro,
Tor-RD1H2026-985-9,Lothian Ave,Lothian Ave 24 m North of Van Dusen Blvd to 12 m South of Van Dusen Blvd,ETOBICOKE,Local Road,1,43.642200,-79.519900,1779793200000,1788210000000,Low,Low,CONSTRUCTION,,BOTH_DIRECTIONS,Toronto Hydro,
Tor-RD1H2026-985-10,Van Dusen Blvd,Van Dusen Blvd 9 m West of Lothian Ave to 12 m East of Lothian Ave,ETOBICOKE,Local Road,1,43.641970,-79.519920,1779793200000,1788210000000,Low,Low,CONSTRUCTION,,BOTH_DIRECTIONS,Toronto Hydro,
Tor-RD1H2026-985-11,Van Dusen Blvd,Van Dusen Blvd 14 m East of Lothian Ave to 10 m West of Eagle Rd,ETOBICOKE,Local Road,1,43.642020,-79.519650,1779793200000,1788210000000,Low,Low,CONSTRUCTION,,ONE_DIRECTION,Toronto Hydro,
Tor-RD1H2026-985-12,Van Dusen Blvd,Van Dusen Blvd 9 m West of Eagle Rd to 9 m East of Eagle Rd,ETOBICOKE,Local Road,1,43.642200,-79.518800,1779793200000,1788210000000,Low,Low,CONSTRUCTION,,BOTH_DIRECTIONS,Toronto Hydro,
Tor-RD1H2026-985-13,Eagle Rd,Eagle Rd 16 m North of Van Dusen Blvd to 2 m North of Van Dusen Blvd,ETOBICOKE,Local Road,1,43.642360,-79.518760,1779793200000,1788210000000,Low,Low,CONSTRUCTION,,BOTH_DIRECTIONS,Toronto Hydro,
Tor-RD1H2026-985-14,Eagle Rd,Eagle Rd 15 m North of Meadowvale Dr to 20 m South of Bloor St W,ETOBICOKE,Local Road,1,43.643800,-79.519370,1779793200000,1788210000000,Low,Low,CONSTRUCTION,,ONE_DIRECTION,Toronto Hydro,
Tor-RD52026-871-1,Manstor Rd,Manstor Rd at Boncer Dr to 17 m West of Boncer Dr,ETOBICOKE,Local Road,1,43.617770,-79.561260,1775559600000,1781305200000,Low,Low,CONSTRUCTION,,ONE_DIRECTION,"{tabledata"":[{""Option"":""Toronto Water""""",
Tor-RD52026-2286,Shady Oaks Cres,Shady Oaks Cres 45 m Southwest of Chapleau Pl to 28 m Southwest of Chapleau Pl,NORTH YORK,Local Road,1,43.726740,-79.362610,1779879600000,1780441200000,Low,Low,CONSTRUCTION,,ONE_DIRECTION,"{tabledata"":[{""Option"":""Toronto Water""""",
Tor-RD52026-2177,Croatia St,Croatia St 63 m East of Collegiate Rd to 26 m East of Collegiate Rd,TORONTO,Local Road,1,43.658020,-79.436280,1779966000000,1780527600000,Low,Low,CONSTRUCTION,,ONE_DIRECTION,"{tabledata"":[{""Option"":""Toronto Water""""",
Tor-RD1H2026-921-2,Kilbarry Rd,Kilbarry Rd 15 m East of Burton Rd to 63 m East of Burton Rd,TORONTO,Local Road,1,43.692870,-79.414240,1779102000000,1784318400000,Low,Low,ROAD_CLOSED,ROAD_CLOSED_CONSTRUCTION,BOTH_DIRECTIONS,Toronto Hydro,
Tor-RD52026-1220-1,Kennedy Rd,Kennedy Rd 243 m North of Brenda Cres to 144 m North of Brenda Cres,SCARBOROUGH,Major Arterial Road,1,43.719590,-79.262560,1778670000000,1782860400000,High,High,CONSTRUCTION,,ONE_DIRECTION,"{tabledata"":[{""Option"":""Other""""",
Tor-RD1H2026-739-13,Westhead Rd,Westhead Rd 9 m South of Dunning Cres to 17 m North of Highbury Dr,ETOBICOKE,Local Road,1,43.603180,-79.554530,1777287600000,1787864400000,Low,Low,CONSTRUCTION,,ONE_DIRECTION,Toronto Hydro,
Tor-RD012026-198-2,Ceramic Rd,Ceramic Rd 8 m South of Le Page Crt to 17 m North of St Regis Cres N,NORTH YORK,Local Road,1,43.759020,-79.484880,1773658800000,1782946800000,Low,Low,ROAD_CLOSED,ROAD_CLOSED_CONSTRUCTION,BOTH_DIRECTIONS,Other,
Tor-RD52026-2389,Cortleigh Blvd,Cortleigh Blvd 76 m East of Proudfoot Ave to 55 m East of Proudfoot Ave,TORONTO,Local Road,1,43.711580,-79.418730,1779879600000,1780441200000,Low,Low,CONSTRUCTION,,ONE_DIRECTION,"{tabledata"":[{""Option"":""Toronto Water""""",
Tor-RD52026-1164-4,Dunraven Dr,Dunraven Dr 2 m West of Scott Rd to 12 m East of Ln E Keele N Dunraven,YORK,Local Road,1,43.684550,-79.470080,1777374000000,1790803800000,Low,Low,CONSTRUCTION,,ONE_DIRECTION,"{tabledata"":[{""Option"":""Toronto Water""""",
Tor-RD52026-759-4,Oriole Pkwy,Oriole Pkwy 10 m North of Chaplin Cres to 3 m South of Eglinton Ave W,TORONTO,Minor Arterial Road,1,43.697960,-79.403270,1776078000000,1782860400000,Low,Low,CONSTRUCTION,,ONE_DIRECTION,"{tabledata"":[{""Option"":""Transportation Services""""",
Tor-RD52026-759-5,Oriole Pkwy,Oriole Pkwy 3 m South of Eglinton Ave W to 10 m North of Chaplin Cres,TORONTO,Minor Arterial Road,1,43.705060,-79.406090,1776078000000,1782860400000,Low,Low,CONSTRUCTION,,BOTH_DIRECTIONS,"{tabledata"":[{""Option"":""Transportation Services""""",
Tor-RD1H2026-739-19,Dunning Cres,Dunning Cres 13 m West of Westhead Rd to 46 m West of Westhead Rd,ETOBICOKE,Local Road,1,43.601770,-79.554090,1777287600000,1787864400000,Low,Low,CONSTRUCTION,,ONE_DIRECTION,Toronto Hydro,
Tor-RD52026-663-8,Greenwood Ave,Greenwood Ave 8 m South of Glebeholme Blvd to 7 m North of Strathmore Blvd,TORONTO,Minor Arterial Road,1,43.683860,-79.333380,1774868400000,1785538800000,Low,Low,CONSTRUCTION,,ONE_DIRECTION,"{tabledata"":[{""Option"":""Transportation Services""""",
Tor-RD52026-663-9,Greenwood Ave,Greenwood Ave 7 m South of Milverton Blvd to 9 m North of Glebeholme Blvd,TORONTO,Minor Arterial Road,1,43.684650,-79.333730,1774868400000,1785538800000,Low,Low,CONSTRUCTION,,ONE_DIRECTION,"{tabledata"":[{""Option"":""Transportation Services""""",
Tor-RD52026-663-6,Greenwood Ave,Greenwood Ave 6 m South of Springdale Blvd to 6 m North of Milverton Blvd,EAST YORK and TORONTO,Minor Arterial Road,1,43.685410,-79.334040,1774868400000,1785538800000,Low,Low,CONSTRUCTION,,ONE_DIRECTION,"{tabledata"":[{""Option"":""Transportation Services""""",
Tor-RD52026-663-7,Greenwood Ave,Greenwood Ave 6 m South of Milverton Blvd to 8 m North of Glebeholme Blvd,TORONTO,Minor Arterial Road,1,43.684660,-79.333730,1774868400000,1785538800000,Low,Low,CONSTRUCTION,,ONE_DIRECTION,"{tabledata"":[{""Option"":""Transportation Services""""",
Tor-RD52026-870-4,Alanmeade Cres,Alanmeade Cres 141 m North of Harrop Ave to 146 m North of Harrop Ave,ETOBICOKE,Local Road,1,43.655540,-79.557800,1776164400000,1794607200000,Low,Low,CONSTRUCTION,,ONE_DIRECTION,"{tabledata"":[{""Option"":""Toronto Water""""",
Tor-RD1H2026-933-5,Coules Crt,Coules Crt 45 m Southeast of Ecker Dr to 19 m West of Brown's Line,ETOBICOKE,Local Road,1,43.607120,-79.549340,1779966000000,1788210000000,Low,Low,CONSTRUCTION,,ONE_DIRECTION,Toronto Hydro,
Tor-RD52026-1849-1,Cynthia Rd,Cynthia Rd 6 m East of Scarlett Rd to Frimette Cres,YORK,Local Road,1,43.677480,-79.506290,1778238000000,1793577600000,Low,Low,CONSTRUCTION,,ONE_DIRECTION,"{tabledata"":[{""Option"":""Toronto Water""""",
Tor-RD52026-1849-2,Cynthia Rd,Cynthia Rd from Frimette Cres to end of road,YORK,Local Road,1,43.679340,-79.503510,1778238000000,1793577600000,Low,Low,CONSTRUCTION,,ONE_DIRECTION,"{tabledata"":[{""Option"":""Toronto Water""""",
Tor-RD52026-1849-3,Cynthia Rd,Cynthia Rd from end of road to Frimette Cres,YORK,Local Road,1,43.680170,-79.501430,1778238000000,1793577600000,Low,Low,CONSTRUCTION,,ONE_DIRECTION,"{tabledata"":[{""Option"":""Toronto Water""""",
Tor-RD52026-1849-6,Cynthia Rd,Cynthia Rd from Frimette Cres to Frimette Cres,YORK,Local Road,1,43.679340,-79.503510,1778238000000,1793577600000,Low,Low,CONSTRUCTION,,ONE_DIRECTION,"{tabledata"":[{""Option"":""Toronto Water""""",
Tor-RD52026-1849-11,East Dr,East Dr from Scarlett Rd to Brendwin Rd,YORK,Local Road,1,43.676830,-79.505970,1778238000000,1793577600000,Low,Low,CONSTRUCTION,,ONE_DIRECTION,"{tabledata"":[{""Option"":""Toronto Water""""",
Tor-RD52026-1849-12,Brendwin Rd,Brendwin Rd at East Dr to 8 m North of East Dr,YORK,Local Road,1,43.677400,-79.503460,1778238000000,1793577600000,Low,Low,CONSTRUCTION,,ONE_DIRECTION,"{tabledata"":[{""Option"":""Toronto Water""""",
Tor-RD52026-759-6,Oriole Pkwy,Oriole Pkwy 3 m South of Eglinton Ave W to 14 m North of Chaplin Cres,TORONTO,Minor Arterial Road,1,43.705060,-79.406090,1776078000000,1782860400000,Low,Low,CONSTRUCTION,,ONE_DIRECTION,"{tabledata"":[{""Option"":""Transportation Services""""",
Tor-RD52026-98,Appleby Rd,Appleby Rd 34 m North of Burnhamthorpe Rd to 4 m Southwest of Lorraine Gdns,ETOBICOKE,Local Road,1,43.649470,-79.547500,1774436400000,1790375400000,Low,Low,ROAD_CLOSED,ROAD_CLOSED_CONSTRUCTION,BOTH_DIRECTIONS,"{tabledata"":[{""Option"":""Transportation Services""""",
Tor-RD52026-99-2,Lorraine Gdns,Lorraine Gdns 8 m East of Martin Grove Rd to 5 m Northwest of Appleby Rd,ETOBICOKE,Local Road,1,43.652900,-79.550680,1774436400000,1790375400000,Low,Low,ROAD_CLOSED,ROAD_CLOSED_CONSTRUCTION,BOTH_DIRECTIONS,"{tabledata"":[{""Option"":""Transportation Services""""",
Tor-RD1H2026-739-11,Westhead Rd,Westhead Rd 14 m Northwest of Dunning Cres to 9 m South of Dunning Cres,ETOBICOKE,Local Road,1,43.603380,-79.554640,1777287600000,1787864400000,Low,Low,CONSTRUCTION,,ONE_DIRECTION,Toronto Hydro,
Tor-RD1H2026-933-15,Savona Dr,Savona Dr 52 m Southwest of Ecker Dr to 25 m North of Ecker Dr,ETOBICOKE,Local Road,1,43.606150,-79.553600,1779966000000,1788210000000,Low,Low,CONSTRUCTION,,BOTH_DIRECTIONS,Toronto Hydro,
Tor-RD52026-2171-1,Steeprock Dr,Steeprock Dr at Chesswood Dr to 5 m West of Dufferin St,NORTH YORK,Minor Arterial Road,1,43.757230,-79.475020,1779706800000,1793577600000,Low,Low,CONSTRUCTION,,ONE_DIRECTION,"{tabledata"":[{""Option"":""Toronto Water""""",
Tor-RD52026-2171-2,Steeprock Dr,Steeprock Dr 5 m West of Dufferin St to Whitehorse Rd,NORTH YORK,Minor Arterial Road,1,43.761030,-79.465270,1779706800000,1793577600000,Low,Low,CONSTRUCTION,,ONE_DIRECTION,"{tabledata"":[{""Option"":""Toronto Water""""",
Tor-RD52026-2171-3,Whitehorse Rd,Whitehorse Rd at Steeprock Dr to 6 m South of Steeprock Dr,NORTH YORK,Local Road,1,43.758470,-79.472360,1779706800000,1793577600000,Low,Low,CONSTRUCTION,,ONE_DIRECTION,"{tabledata"":[{""Option"":""Toronto Water""""",
Tor-RD52026-2171-4,Whitehorse Rd,Whitehorse Rd 6 m South of Steeprock Dr to 3 m Southeast of Rimrock Rd,NORTH YORK,Local Road,1,43.758410,-79.472330,1779706800000,1793577600000,Low,Low,CONSTRUCTION,,ONE_DIRECTION,"{tabledata"":[{""Option"":""Toronto Water""""",
Tor-RD52026-663-12,Greenwood Ave,Greenwood Ave 6 m North of Milverton Blvd to 9 m South of Sammon Ave,EAST YORK and TORONTO,Minor Arterial Road,1,43.684760,-79.333780,1774868400000,1785538800000,Low,Low,ROAD_CLOSED,ROAD_CLOSED_CONSTRUCTION,BOTH_DIRECTIONS,"{tabledata"":[{""Option"":""Transportation Services""""",
Tor-RD52026-663-13,Greenwood Ave,Greenwood Ave 7 m South of Milverton Blvd to 8 m North of Strathmore Blvd,TORONTO,Minor Arterial Road,1,43.684650,-79.333730,1774868400000,1785538800000,Low,Low,ROAD_CLOSED,ROAD_CLOSED_CONSTRUCTION,BOTH_DIRECTIONS,"{tabledata"":[{""Option"":""Transportation Services""""",
Tor-RD52026-663-10,Greenwood Ave,Greenwood Ave 8 m South of Glebeholme Blvd to 8 m North of Strathmore Blvd,TORONTO,Minor Arterial Road,1,43.683860,-79.333380,1774868400000,1785538800000,Low,Low,CONSTRUCTION,,ONE_DIRECTION,"{tabledata"":[{""Option"":""Transportation Services""""",
Tor-RD52026-663-11,Greenwood Ave,Greenwood Ave 12 m South of Mortimer Ave to 6 m North of Sammon Ave,EAST YORK,Minor Arterial Road,1,43.688560,-79.335460,1774868400000,1785538800000,Low,Low,ROAD_CLOSED,ROAD_CLOSED_CONSTRUCTION,BOTH_DIRECTIONS,"{tabledata"":[{""Option"":""Transportation Services""""",
Tor-RD052025-1044-11,Sorauren Ave,Sorauren Ave 4 m North of Geoffrey St to 2 m North of Grenadier Rd,TORONTO,Local Road,1,43.649120,-79.444560,1776078000000,1783717200000,Low,Low,ROAD_CLOSED,ROAD_CLOSED_CONSTRUCTION,BOTH_DIRECTIONS,Transportation Services,
Tor-RD052025-1044-10,Sorauren Ave,Sorauren Ave 14 m North of Fermanagh Ave to 21 m North of Geoffrey St,TORONTO,Local Road,1,43.647460,-79.443920,1776078000000,1783717200000,Low,Low,ROAD_CLOSED,ROAD_CLOSED_CONSTRUCTION,BOTH_DIRECTIONS,Transportation Services,
Tor-RD052025-1044-12,Sorauren Ave,Sorauren Ave 5 m North of Grenadier Rd to 3 m South of Columbus Ave,TORONTO,Local Road,1,43.650010,-79.444900,1776078000000,1783717200000,Low,Low,ROAD_CLOSED,ROAD_CLOSED_CONSTRUCTION,BOTH_DIRECTIONS,Transportation Services,
Tor-RD052025-1044-13,Sorauren Ave,Sorauren Ave 5 m North of Columbus Ave to 20 m South of Dundas St W,TORONTO,Local Road,1,43.650520,-79.445100,1776078000000,1783717200000,Low,Low,ROAD_CLOSED,ROAD_CLOSED_CONSTRUCTION,BOTH_DIRECTIONS,Transportation Services,
Tor-RD52026-1235-2,Faywood Blvd,Faywood Blvd 8 m South of Clanton Park Rd to Ansford Ave,NORTH YORK,Local Road,1,43.743730,-79.448780,1776682800000,1797638400000,Low,Low,CONSTRUCTION,,ONE_DIRECTION,"{tabledata"":[{""Option"":""Toronto Water""""",
Tor-RD52026-1235-3,Ansford Ave,Ansford Ave at Faywood Blvd to 5 m West of Faywood Blvd,NORTH YORK,Local Road,1,43.735830,-79.446680,1776682800000,1797638400000,Low,Low,CONSTRUCTION,,ONE_DIRECTION,"{tabledata"":[{""Option"":""Toronto Water""""",
Tor-RD052025-2242-6,Warden Ave,Warden Ave 46 m North of West Highland Creek to 49 m South of Bridletowne Crcl,SCARBOROUGH,Major Arterial Road,1,43.791420,-79.313560,1777546800000,1780441200000,High,High,CONSTRUCTION,,ONE_DIRECTION,Other,
Tor-RD042026-628-4,Ferrand Dr,Ferrand Dr 3 m North of Wilket Creek Rd to 25 m South of Wilket Creek Rd,NORTH YORK,Local Road,1,43.719360,-79.335260,1779706800000,1782504000000,Low,Low,ROAD_CLOSED,ROAD_CLOSED_CONSTRUCTION,BOTH_DIRECTIONS,Utility,
Tor-RD1H2026-933-10,Ecker Dr,Ecker Dr 11 m East of Hargrove Lane to 8 m West of Gair Dr,ETOBICOKE,Local Road,1,43.606860,-79.552000,1779966000000,1788210000000,Low,Low,CONSTRUCTION,,ONE_DIRECTION,Toronto Hydro,
Tor-RD1H2026-921-1,Kilbarry Rd,Kilbarry Rd 8 m Northeast of Warren Rd to 8 m West of Forest Hill Rd,TORONTO,Local Road,1,43.693850,-79.409540,1779102000000,1784318400000,Low,Low,ROAD_CLOSED,ROAD_CLOSED_CONSTRUCTION,BOTH_DIRECTIONS,Toronto Hydro,
Tor-RD062025-2325,Beckwith Rd,Beckwith Rd at Eringate Dr to 100 m North of Ln S Eringate W Odessa,ETOBICOKE,Local Road,1,43.662400,-79.575970,1774436400000,1790370000000,Low,Low,ROAD_CLOSED,ROAD_CLOSED_CONSTRUCTION,BOTH_DIRECTIONS,"Road Resurfacing, Road Recontruction, Sidewalk Construction",
Tor-RD1H2026-933-17,Savona Dr,Savona Dr 15 m East of Rufford Rd to 16 m West of Rufford Rd,ETOBICOKE,Local Road,1,43.606040,-79.554170,1779966000000,1788210000000,Low,Low,CONSTRUCTION,,BOTH_DIRECTIONS,Toronto Hydro,
Tor-RD012026-139-3,Buckingham St,Buckingham St 8 m North of Newcastle St to 60 m North of Newcastle St,ETOBICOKE,Local Road,1,43.618280,-79.495870,1771243200000,1780182000000,Low,Low,ROAD_CLOSED,ROAD_CLOSED_CONSTRUCTION,BOTH_DIRECTIONS,Watermain,
Tor-RD1H2026-595-2,Burrows Hall Blvd,Burrows Hall Blvd 25 m West of Dowswell Dr to 15 m East of Tinbury Pl,SCARBOROUGH,Local Road,1,43.795000,-79.224640,1775127600000,1781823600000,Low,Low,CONSTRUCTION,,ONE_DIRECTION,Toronto Hydro,
Tor-RD52026-2123,Brunswick Ave,Brunswick Ave 23 m Northwest of Bernard Ave to 43 m Northwest of Bernard Ave,TORONTO,Local Road,1,43.671890,-79.409660,1779188400000,1781305200000,Low,Low,ROAD_CLOSED,ROAD_CLOSED_CONSTRUCTION,BOTH_DIRECTIONS,"{tabledata"":[{""Option"":""Toronto Water""""",
Tor-RD052025-1044-7,Sorauren Ave,Sorauren Ave 16 m North of Garden Ave to 2 m South of Fern Ave,TORONTO,Local Road,1,43.644850,-79.442920,1776078000000,1783717200000,Low,Low,ROAD_CLOSED,ROAD_CLOSED_CONSTRUCTION,BOTH_DIRECTIONS,Transportation Services,
Tor-RD052025-1044-8,Sorauren Ave,Sorauren Ave 5 m North of Fern Ave to 3 m South of Wright Ave,TORONTO,Local Road,1,43.645630,-79.443200,1776078000000,1783717200000,Low,Low,ROAD_CLOSED,ROAD_CLOSED_CONSTRUCTION,BOTH_DIRECTIONS,Transportation Services,
Tor-RD052025-1044-6,Sorauren Ave,Sorauren Ave 12 m North of Galley Ave to Garden Ave,TORONTO,Local Road,1,43.643950,-79.442580,1776078000000,1783717200000,Low,Low,ROAD_CLOSED,ROAD_CLOSED_CONSTRUCTION,BOTH_DIRECTIONS,Transportation Services,
Tor-RD52026-874-20,Ansford Ave,Ansford Ave 20 m East of Wilson Heights Blvd to 7 m West of Faywood Blvd,NORTH YORK,Local Road,1,43.735640,-79.447520,1775559600000,1797631200000,Low,Low,CONSTRUCTION,,ONE_DIRECTION,"{tabledata"":[{""Option"":""Toronto Water""""",
Tor-RD52026-874-21,Ansford Ave,Ansford Ave 7 m West of Faywood Blvd to Faywood Blvd,NORTH YORK,Local Road,1,43.735810,-79.446760,1775559600000,1797631200000,Low,Low,CONSTRUCTION,,ONE_DIRECTION,"{tabledata"":[{""Option"":""Toronto Water""""",
Tor-RD52026-874-22,Faywood Blvd,Faywood Blvd at Ansford Ave to 3 m South of Faith Ave,NORTH YORK,Local Road,1,43.735830,-79.446680,1775559600000,1797631200000,Low,Low,CONSTRUCTION,,ONE_DIRECTION,"{tabledata"":[{""Option"":""Toronto Water""""",
Tor-RD52026-1552,Ln E Sunnyside S Grenadier,Ln E Sunnyside S Grenadier 8 m South of Grenadier Rd to 7 m North of Geoffrey St,TORONTO,Unknown,1,43.648440,-79.451720,1778497200000,1780441200000,Low,Low,ROAD_CLOSED,ROAD_CLOSED_CONSTRUCTION,BOTH_DIRECTIONS,"{tabledata"":[{""Option"":""Transportation Services""""",
Tor-RD52026-1770-1,Jackson Ave,Jackson Ave 4 m North of Tremayne Ave to 3 m South of The Kingsway,ETOBICOKE,Local Road,1,43.652210,-79.510890,1778151600000,1782860400000,Low,Low,CONSTRUCTION,,ONE_DIRECTION,"{tabledata"":[{""Option"":""Transportation Services""""",
Tor-RD52026-1164-3,Dunraven Dr,Dunraven Dr 3 m West of Kane Ave to 4 m East of Scott Rd,YORK,Local Road,1,43.685050,-79.467790,1777374000000,1790803800000,Low,Low,CONSTRUCTION,,ONE_DIRECTION,"{tabledata"":[{""Option"":""Toronto Water""""",
Tor-RD52026-1164-2,Dunraven Dr,Dunraven Dr 8 m Northeast of Silverthorn Ave to Bert Robinson Park Trl,YORK,Local Road,1,43.685490,-79.466210,1777374000000,1790803800000,Low,Low,ROAD_CLOSED,ROAD_CLOSED_CONSTRUCTION,ONE_DIRECTION,"{tabledata"":[{""Option"":""Toronto Water""""",
Tor-RD012026-198-5-1,St Regis Cres,St Regis Cres 3 m South of St Regis Cres N to Bakersfield St,NORTH YORK,Local Road,1,43.755160,-79.485690,1773658800000,1782946800000,Low,Low,ROAD_CLOSED,ROAD_CLOSED_CONSTRUCTION,BOTH_DIRECTIONS,Other,
Tor-RD52026-756-2,Sackville Pl,Sackville Pl 2 m East of Flagler St to 3 m West of Rawlings Ave,TORONTO,Local Road,1,43.665970,-79.364630,1776682800000,1785538800000,Low,Low,ROAD_CLOSED,ROAD_CLOSED_CONSTRUCTION,BOTH_DIRECTIONS,"{tabledata"":[{""Option"":""Toronto Water""""",
Tor-RD52026-757-3,Bowman St,Bowman St from Carlton St to Sackville Pl,TORONTO,Local Road,1,43.665390,-79.363850,1779706800000,1782514800000,Low,Low,ROAD_CLOSED,ROAD_CLOSED_CONSTRUCTION,BOTH_DIRECTIONS,"{tabledata"":[{""Option"":""Toronto Water""""",
Tor-RD52026-756-1,Sackville Pl,Sackville Pl 6 m West of Woodstock Pl to Flagler St,TORONTO,Local Road,1,43.665930,-79.364820,1776682800000,1785538800000,Low,Low,ROAD_CLOSED,ROAD_CLOSED_CONSTRUCTION,BOTH_DIRECTIONS,"{tabledata"":[{""Option"":""Toronto Water""""",
Tor-RD52026-663-3,Greenwood Ave,Greenwood Ave 8 m South of Sammon Ave to 7 m North of Milverton Blvd,EAST YORK and TORONTO,Minor Arterial Road,1,43.686810,-79.334640,1774868400000,1785538800000,Low,Low,CONSTRUCTION,,ONE_DIRECTION,"{tabledata"":[{""Option"":""Transportation Services""""",
Tor-RD052025-1044-9,Sorauren Ave,Sorauren Ave 8 m North of Wright Ave to 5 m North of Fermanagh Ave,TORONTO,Local Road,1,43.646530,-79.443560,1776078000000,1783717200000,Low,Low,ROAD_CLOSED,ROAD_CLOSED_CONSTRUCTION,BOTH_DIRECTIONS,Transportation Services,
Tor-RD52026-1770-2,Jackson Ave,Jackson Ave 19 m North of Bloor St W to Varley Lane,ETOBICOKE,Local Road,1,43.648080,-79.508950,1778151600000,1782860400000,Low,Low,CONSTRUCTION,,ONE_DIRECTION,"{tabledata"":[{""Option"":""Transportation Services""""",
Tor-RD1H2026-933-4-1,Ecker Dr,Ecker Dr 19 m West of Coules Crt to Coules Crt,ETOBICOKE,Local Road,1,43.607310,-79.550030,1779966000000,1788210000000,Low,Low,CONSTRUCTION,,BOTH_DIRECTIONS,Toronto Hydro,
Tor-RD1H2026-933-4-2,Coules Crt,Coules Crt at Ecker Dr to 15 m North of Ecker Dr,ETOBICOKE,Local Road,1,43.607360,-79.549800,1779966000000,1788210000000,Low,Low,CONSTRUCTION,,BOTH_DIRECTIONS,Toronto Hydro,
Tor-RD1H2026-933-4-3,Coules Crt,Coules Crt 15 m North of Ecker Dr to 45 m Southeast of Ecker Dr,ETOBICOKE,Local Road,1,43.607490,-79.549850,1779966000000,1788210000000,Low,Low,CONSTRUCTION,,BOTH_DIRECTIONS,Toronto Hydro,
Tor-RD062025-2326-2,Belgate Pl,Belgate Pl at Sigmont Rd to 8 m North of Beckwith Rd,ETOBICOKE,Local Road,1,43.661170,-79.576570,1774436400000,1790370000000,Low,Low,ROAD_CLOSED,ROAD_CLOSED_CONSTRUCTION,BOTH_DIRECTIONS,"Road Resurfacing, Road Recontruction, Sidewalk Construction",
Tor-RD052025-2017,Magnolia Ave,Magnolia Ave 141 m South of Corvette Ave to 145 m North of Summer Dr,SCARBOROUGH,Local Road,1,43.725700,-79.256920,1761822000000,1785106800000,Low,Low,ROAD_CLOSED,ROAD_CLOSED_CONSTRUCTION,BOTH_DIRECTIONS,Other,
Tor-RD062025-2327,Sigmont Rd,Sigmont Rd 36 m North of Belgate Pl to 42 m North of Faversham Cres,ETOBICOKE,Unknown,1,43.661480,-79.576700,1774436400000,1790370000000,Low,Low,ROAD_CLOSED,ROAD_CLOSED_CONSTRUCTION,BOTH_DIRECTIONS,"Road Resurfacing, Road Recontruction, Sidewalk Construction",
Tor-RD52026-855,Balmoral Ave,Balmoral Ave 14 m East of Warren Rd to 15 m West of Poplar Plains Rd,TORONTO,Local Road,1,43.683810,-79.405380,1777633200000,1782507600000,Low,Low,CONSTRUCTION,,ONE_DIRECTION,"{tabledata"":[{""Option"":""Transportation Services""""",
Tor-RD052025-2018-2,Granger Ave,Granger Ave 55 m South of end of road to 113 m South of end of road,SCARBOROUGH,Local Road,1,43.725680,-79.255790,1761822000000,1785106800000,Low,Low,ROAD_CLOSED,ROAD_CLOSED_CONSTRUCTION,BOTH_DIRECTIONS,Other,
Tor-RD52026-1367,Highview Cres,Highview Cres at Rosemount Ave to 11 m West of Oakwood Ave,TORONTO,Local Road,1,43.677870,-79.436370,1778497200000,1783724400000,Low,Low,CONSTRUCTION,,BOTH_DIRECTIONS,"{tabledata"":[{""Option"":""Transportation Services""""",
Tor-RD042026-586-5,Don Mills Rd,Don Mills Rd 158 m North of West Don River Trl to 102 m North of West Don River Trl,EAST YORK,Major Arterial Road,1,43.706890,-79.333700,1779188400000,1781060400000,High,High,CONSTRUCTION,,ONE_DIRECTION,Utility,
Tor-RD042026-342-3,Pape Ave,Pape Ave 32 m South of Bain Ave to 7 m South of Bain Ave,TORONTO,Minor Arterial Road,1,43.672670,-79.342290,1774868400000,1785445200000,Low,Low,CONSTRUCTION,,ONE_DIRECTION,Metrolinx,
Tor-RD042026-342-4,Pape Ave,Pape Ave 6 m South of Withrow Ave to Riverdale Ave,TORONTO,Minor Arterial Road,1,43.672050,-79.342040,1774868400000,1785445200000,Low,Low,ROAD_CLOSED,ROAD_CLOSED_CONSTRUCTION,BOTH_DIRECTIONS,Metrolinx,
Tor-RD012026-198-5-2,Bakersfield St,Bakersfield St at St Regis Cres to 2 m North of St Regis Cres,NORTH YORK,Local Road,1,43.755320,-79.480470,1773658800000,1782946800000,Low,Low,ROAD_CLOSED,ROAD_CLOSED_CONSTRUCTION,BOTH_DIRECTIONS,Other,
